id,municipio,id_municipio,uf,longitude,latitude
1100015,Alta Floresta D'Oeste,,,,
1100023,Ariquemes,3834.0,RO,-63.032516,-9.905711
1100031,Cabixi,3836.0,RO,-60.552032,-13.494479
1100049,Cacoal,3838.0,RO,-61.456167,-11.434271
1100056,Cerejeiras,3842.0,RO,-60.816836,-13.186987
1100064,Colorado do Oeste,3844.0,RO,-60.545428,-13.117431
1100072,Corumbiara,3845.0,RO,-60.894732,-12.955111
1100080,Costa Marques,3846.0,RO,-64.22797,-12.436715
1100098,Espigão D'Oeste,,,,
1100106,Guajará-Mirim,3850.0,RO,-65.329566,-10.788927
1100114,Jaru,3852.0,RO,-62.478769,-10.431826
1100122,Ji-Paraná,3853.0,RO,-61.932152,-10.877741
1100130,Machadinho D'Oeste,,,,
1100148,Nova Brasilândia D'Oeste,,,,
1100155,Ouro Preto do Oeste,3862.0,RO,-62.256532,-10.716717
1100189,Pimenta Bueno,3864.0,RO,-61.197963,-11.671959
1100205,Porto Velho,3866.0,RO,-63.899902,-8.760772
1100254,Presidente Médici,1278.0,MA,-45.820014,-2.389908
1100254,Presidente Médici,3867.0,RO,-61.898617,-11.168974
1100262,Rio Crespo,3869.0,RO,-62.901127,-9.699648
1100288,Rolim de Moura,3870.0,RO,-61.771411,-11.727071
1100296,Santa Luzia D'Oeste,,,,
1100304,Vilhena,3881.0,RO,-60.148847,-12.750183
1100320,São Miguel do Guaporé,3874.0,RO,-62.719222,-11.69527
1100338,Nova Mamoré,3859.0,RO,-65.334596,-10.407697
1100346,Alvorada D'Oeste,,,,
1100379,Alto Alegre dos Parecis,3831.0,RO,-61.834979,-12.131955
1100403,Alto Paraíso,3567.0,PR,-53.728537,-23.508137
1100403,Alto Paraíso,3832.0,RO,-63.318834,-9.714294
1100452,Buritis,1444.0,MG,-46.422078,-15.621802
1100452,Buritis,3835.0,RO,-63.832438,-10.194272
1100502,Novo Horizonte do Oeste,3861.0,RO,-61.995137,-11.696145
1100601,Cacaulândia,3837.0,RO,-62.904328,-10.348981
1100700,Campo Novo de Rondônia,3839.0,RO,-63.626551,-10.57125
1100809,Candeias do Jamari,3840.0,RO,-63.700502,-8.790696
1100908,Castanheiras,3841.0,RO,-61.948228,-11.425304
1100924,Chupinguaia,3843.0,RO,-60.887694,-12.561115
1100940,Cujubim,3847.0,RO,-62.584579,-9.360655
1101005,Governador Jorge Teixeira,3849.0,RO,-62.737071,-10.610031
1101104,Itapuã do Oeste,3851.0,RO,-63.180878,-9.196871
1101203,Ministro Andreazza,3855.0,RO,-61.517437,-11.19596
1101302,Mirante da Serra,3856.0,RO,-62.669593,-11.028967
1101401,Monte Negro,3857.0,RO,-63.289988,-10.245823
1101435,Nova União,1869.0,MG,-43.583048,-19.687584
1101435,Nova União,3860.0,RO,-62.556368,-10.90681
1101450,Parecis,3863.0,RO,-61.603225,-12.175416
1101468,Pimenteiras do Oeste,3865.0,RO,-61.047052,-13.482271
1101476,Primavera de Rondônia,3868.0,RO,-61.315336,-11.829456
1101484,São Felipe D'Oeste,,,,
1101492,São Francisco do Guaporé,3873.0,RO,-63.567968,-12.051977
1101500,Seringueiras,3875.0,RO,-63.018234,-11.805454
1101559,Teixeirópolis,3876.0,RO,-62.241993,-10.905601
1101609,Theobroma,3877.0,RO,-62.353796,-10.24834
1101708,Urupá,3878.0,RO,-62.363895,-11.126123
1101757,Vale do Anari,3879.0,RO,-62.187649,-9.862155
1101807,Vale do Paraíso,3880.0,RO,-62.135182,-10.446543
1200013,Acrelândia,2.0,AC,-66.897166,-9.825808
1200054,Assis Brasil,3.0,AC,-69.573794,-10.929765
1200104,Brasiléia,4.0,AC,-68.749696,-10.994994
1200138,Bujari,5.0,AC,-67.955029,-9.815277
1200179,Capixaba,6.0,AC,-67.686006,-10.566031
1200203,Cruzeiro do Sul,7.0,AC,-72.675582,-7.627625
1200203,Cruzeiro do Sul,3263.0,PR,-52.16221,-22.96244
1200203,Cruzeiro do Sul,4011.0,RS,-51.992778,-29.514835
1200252,Epitaciolândia,8.0,AC,-68.734109,-11.018771
1200302,Feijó,9.0,AC,-70.350973,-8.170536
1200328,Jordão,10.0,AC,-71.897391,-9.430912
1200336,Mâncio Lima,11.0,AC,-72.899708,-7.616575
1200344,Manoel Urbano,12.0,AC,-69.267862,-8.832911
1200351,Marechal Thaumaturgo,13.0,AC,-72.799704,-8.938983
1200385,Plácido de Castro,14.0,AC,-67.137133,-10.28064
1200393,Porto Walter,16.0,AC,-72.753747,-8.263233
1200401,Rio Branco,17.0,AC,-67.824348,-9.97499
1200401,Rio Branco,2373.0,MT,-58.125892,-15.248331
1200427,Rodrigues Alves,18.0,AC,-72.661015,-7.738638
1200435,Santa Rosa do Purus,19.0,AC,-70.49025,-9.446515
1200450,Senador Guiomard,20.0,AC,-67.736185,-10.149686
1200500,Sena Madureira,21.0,AC,-68.671278,-9.063499
1200609,Tarauacá,22.0,AC,-70.772154,-8.156975
1200708,Xapuri,23.0,AC,-68.496857,-10.651598
1200807,Porto Acre,15.0,AC,-67.547815,-9.581378
1300029,Alvarães,126.0,AM,-64.800654,-3.22727
1300060,Amaturá,127.0,AM,-68.200456,-3.374547
1300086,Anamã,166.0,AM,-61.396337,-3.566966
1300102,Anori,128.0,AM,-61.657485,-3.746027
1300144,Apuí,129.0,AM,-59.895956,-7.194091
1300201,Atalaia do Norte,130.0,AM,-70.1967,-4.370551
1300300,Autazes,131.0,AM,-59.125589,-3.585743
1300409,Barcelos,132.0,AM,-62.931053,-0.983373
1300508,Barreirinha,133.0,AM,-57.067897,-2.798863
1300607,Benjamin Constant,134.0,AM,-70.034157,-4.37768
1300631,Beruri,135.0,AM,-61.36162,-3.898736
1300680,Boa Vista do Ramos,136.0,AM,-57.587333,-2.974087
1300706,Boca do Acre,137.0,AM,-67.391926,-8.742322
1300805,Borba,138.0,AM,-59.58738,-4.391539
1300839,Caapiranga,139.0,AM,-61.220557,-3.315372
1300904,Canutama,140.0,AM,-64.39528,-6.52582
1301001,Carauari,141.0,AM,-66.908559,-4.881605
1301100,Careiro,142.0,AM,-60.369046,-3.768027
1301159,Careiro da Várzea,143.0,AM,-59.79639,-3.196979
1301209,Coari,144.0,AM,-63.144091,-4.094121
1301308,Codajás,145.0,AM,-62.065787,-3.830528
1301407,Eirunepé,146.0,AM,-69.86616,-6.656767
1301506,Envira,147.0,AM,-70.028143,-7.437889
1301605,Fonte Boa,148.0,AM,-66.094212,-2.523424
1301654,Guajará,149.0,AM,-72.590713,-7.537971
1301704,Humaitá,150.0,AM,-63.032743,-7.511712
1301704,Humaitá,4078.0,RS,-53.969525,-27.569065
1301803,Ipixuna,151.0,AM,-71.693426,-7.047909
1301852,Iranduba,152.0,AM,-60.189953,-3.274792
1301902,Itacoatiara,153.0,AM,-58.444874,-3.138607
1301951,Itamarati,154.0,AM,-68.260027,-6.424591
1302009,Itapiranga,155.0,AM,-58.029257,-2.74081
1302009,Itapiranga,4490.0,SC,-53.716603,-27.165856
1302108,Japurá,156.0,AM,-66.929051,-1.882366
1302108,Japurá,3346.0,PR,-52.55572,-23.469273
1302207,Juruá,157.0,AM,-66.071795,-3.484384
1302306,Jutaí,158.0,AM,-66.75947,-2.758144
1302405,Lábrea,159.0,AM,-64.794765,-7.264133
1302504,Manacapuru,160.0,AM,-60.621581,-3.290657
1302553,Manaquiri,161.0,AM,-60.461239,-3.440784
1302603,Manaus,162.0,AM,-60.02123,-3.118662
1302702,Manicoré,163.0,AM,-61.289483,-5.804618
1302801,Maraã,164.0,AM,-65.572995,-1.853129
1302900,Maués,165.0,AM,-57.706731,-3.392891
1303007,Nhamundá,167.0,AM,-56.711151,-2.207932
1303106,Nova Olinda do Norte,168.0,AM,-59.09404,-3.900367
1303205,Novo Airão,169.0,AM,-60.943404,-2.636371
1303304,Novo Aripuanã,170.0,AM,-60.373179,-5.125929
1303403,Parintins,171.0,AM,-56.729045,-2.637412
1303502,Pauini,172.0,AM,-66.992039,-7.713109
1303536,Presidente Figueiredo,173.0,AM,-60.02338,-2.029813
1303569,Rio Preto da Eva,174.0,AM,-59.685793,-2.704497
1303601,Santa Isabel do Rio Negro,175.0,AM,-65.009205,-0.410824
1303700,Santo Antônio do Içá,176.0,AM,-67.946279,-3.095443
1303809,São Gabriel da Cachoeira,177.0,AM,-67.084042,-0.11909
1303908,São Paulo de Olivença,178.0,AM,-68.964581,-3.472919
1303957,São Sebastião do Uatumã,179.0,AM,-57.873049,-2.559147
1304005,Silves,180.0,AM,-58.248031,-2.81748
1304062,Tabatinga,181.0,AM,-69.938273,-4.241597
1304062,Tabatinga,5321.0,SP,-48.689577,-21.723863
1304104,Tapauá,182.0,AM,-63.1808,-5.620855
1304203,Tefé,183.0,AM,-64.719343,-3.368219
1304237,Tonantins,184.0,AM,-67.791904,-2.865825
1304260,Uarini,185.0,AM,-65.113298,-2.996087
1304302,Urucará,186.0,AM,-57.753797,-2.529364
1304401,Urucurituba,187.0,AM,-58.149637,-3.128412
1400027,Amajari,3883.0,RR,-61.369245,3.645714
1400050,Alto Alegre,3882.0,RR,-61.307167,2.98858
1400050,Alto Alegre,3904.0,RS,-52.989255,-28.776865
1400050,Alto Alegre,4744.0,SP,-50.16798,-21.581103
1400100,Boa Vista,2573.0,PB,-36.235706,-7.263653
1400100,Boa Vista,3884.0,RR,-60.675328,2.823842
1400159,Bonfim,1429.0,MG,-44.236565,-20.330215
1400159,Bonfim,3885.0,RR,-59.8333,3.361614
1400175,Cantá,3886.0,RR,-60.605827,2.60994
1400209,Caracaraí,3887.0,RR,-61.130378,1.827659
1400233,Caroebe,3888.0,RR,-59.695886,0.884203
1400282,Iracema,702.0,CE,-38.291943,-5.8124
1400282,Iracema,3889.0,RR,-61.041546,2.183046
1400308,Mucajaí,3890.0,RR,-60.909619,2.439982
1400407,Normandia,3891.0,RR,-59.620402,3.885305
1400456,Pacaraima,3892.0,RR,-61.147695,4.479895
1400472,Rorainópolis,3893.0,RR,-60.438923,0.939956
1400506,São João da Baliza,3894.0,RR,-59.913293,0.951659
1400605,São Luiz,3895.0,RR,-60.041894,1.010193
1400704,Uiramutã,3896.0,RR,-60.181464,4.603144
1500107,Abaetetuba,2401.0,PA,-48.878843,-1.721828
1500131,Abel Figueiredo,2402.0,PA,-48.393285,-4.953327
1500206,Acará,2403.0,PA,-48.198513,-1.953833
1500305,Afuá,2404.0,PA,-50.38613,-0.154874
1500347,Água Azul do Norte,2405.0,PA,-50.479068,-6.790534
1500404,Alenquer,2406.0,PA,-54.738355,-1.946229
1500503,Almeirim,2407.0,PA,-52.581573,-1.520968
1500602,Altamira,2408.0,PA,-52.209961,-3.204065
1500701,Anajás,2409.0,PA,-49.9354,-0.996811
1500800,Ananindeua,2410.0,PA,-48.374298,-1.363914
1500859,Anapu,2411.0,PA,-51.200264,-3.469847
1500909,Augusto Corrêa,2412.0,PA,-46.645551,-1.021634
1500958,Aurora do Pará,2413.0,PA,-47.567712,-2.148976
1501006,Aveiro,2414.0,PA,-55.31994,-3.608415
1501105,Bagre,2415.0,PA,-50.19869,-1.900565
1501204,Baião,2416.0,PA,-49.669443,-2.790212
1501253,Bannach,2417.0,PA,-50.395853,-7.347786
1501303,Barcarena,2418.0,PA,-48.619529,-1.511872
1501402,Belém,31.0,AL,-36.490399,-9.570472
1501402,Belém,2419.0,PA,-48.489756,-1.455396
1501402,Belém,2569.0,PB,-35.51658,-6.742614
1501451,Belterra,2420.0,PA,-54.937392,-2.636091
1501501,Benevides,2421.0,PA,-48.243408,-1.361829
1501576,Bom Jesus do Tocantins,2422.0,PA,-48.604701,-5.042402
1501576,Bom Jesus do Tocantins,5401.0,TO,-48.165043,-8.96306
1501600,Bonito,251.0,BA,-41.264698,-11.966768
1501600,Bonito,2212.0,MS,-56.483565,-21.126096
1501600,Bonito,2423.0,PA,-47.306572,-1.367451
1501600,Bonito,2791.0,PE,-35.729249,-8.471628
1501709,Bragança,2424.0,PA,-46.7826,-1.061263
1501725,Brasil Novo,2425.0,PA,-52.534021,-3.297922
1501758,Brejo Grande do Araguaia,2426.0,PA,-48.41025,-5.698216
1501782,Breu Branco,2427.0,PA,-49.573459,-3.771908
1501808,Breves,2428.0,PA,-50.479085,-1.68036
1501907,Bujaru,2429.0,PA,-48.038063,-1.517616
1501956,Cachoeira do Piriá,2431.0,PA,-46.54593,-1.759738
1502004,Cachoeira do Arari,2430.0,PA,-48.95029,-1.012259
1502103,Cametá,2432.0,PA,-49.497885,-2.242949
1502152,Canaã dos Carajás,2433.0,PA,-49.877612,-6.496594
1502202,Capanema,2434.0,PA,-47.177778,-1.205291
1502202,Capanema,3237.0,PR,-53.805508,-25.669099
1502301,Capitão Poço,2435.0,PA,-47.06293,-1.747847
1502400,Castanhal,2436.0,PA,-47.916742,-1.297971
1502509,Chaves,2437.0,PA,-49.987006,-0.164154
1502608,Colares,2438.0,PA,-48.280254,-0.936423
1502707,Conceição do Araguaia,2439.0,PA,-49.268913,-8.261356
1502756,Concórdia do Pará,2440.0,PA,-47.942204,-1.992375
1502764,Cumaru do Norte,2441.0,PA,-50.769772,-7.810968
1502772,Curionópolis,2442.0,PA,-49.606795,-6.099654
1502806,Curralinho,2443.0,PA,-49.795227,-1.811793
1502855,Curuá,2444.0,PA,-55.116842,-1.887754
1502905,Curuçá,2445.0,PA,-47.85148,-0.733214
1502939,Dom Eliseu,2446.0,PA,-47.505688,-4.283786
1502954,Eldorado dos Carajás,2447.0,PA,-49.355261,-6.103891
1503002,Faro,2448.0,PA,-56.740498,-2.168047
1503044,Floresta do Araguaia,2449.0,PA,-49.712495,-7.553346
1503077,Garrafão do Norte,2450.0,PA,-47.050499,-1.929858
1503093,Goianésia do Pará,2451.0,PA,-49.097385,-3.843384
1503101,Gurupá,2452.0,PA,-51.633841,-1.414123
1503200,Igarapé-Açu,2453.0,PA,-47.617409,-1.136139
1503309,Igarapé-Miri,2454.0,PA,-48.957453,-1.975326
1503408,Inhangapi,2455.0,PA,-47.911393,-1.434897
1503457,Ipixuna do Pará,2456.0,PA,-47.505911,-2.559921
1503507,Irituia,2457.0,PA,-47.445997,-1.769842
1503606,Itaituba,2458.0,PA,-55.99264,-4.266696
1503705,Itupiranga,2459.0,PA,-49.335849,-5.132716
1503754,Jacareacanga,2460.0,PA,-57.754352,-6.21469
1503804,Jacundá,2461.0,PA,-49.115272,-4.446173
1503903,Juruti,2462.0,PA,-56.088903,-2.163472
1504000,Limoeiro do Ajuru,2463.0,PA,-49.390308,-1.898498
1504059,Mãe do Rio,2464.0,PA,-47.560144,-2.056833
1504109,Magalhães Barata,2465.0,PA,-47.601445,-0.803391
1504208,Marabá,2466.0,PA,-49.132672,-5.38075
1504307,Maracanã,2467.0,PA,-47.451983,-0.778899
1504406,Marapanim,2468.0,PA,-47.70336,-0.714702
1504422,Marituba,2469.0,PA,-48.342064,-1.36002
1504455,Medicilândia,2470.0,PA,-52.88748,-3.446375
1504505,Melgaço,2471.0,PA,-50.714927,-1.803202
1504604,Mocajuba,2472.0,PA,-49.504224,-2.583098
1504703,Moju,2473.0,PA,-48.766765,-1.889926
1504802,Monte Alegre,2474.0,PA,-54.072386,-1.997679
1504802,Monte Alegre,3747.0,RN,-35.325337,-6.07063
1504901,Muaná,2475.0,PA,-49.222378,-1.539359
1504950,Nova Esperança do Piriá,2476.0,PA,-46.97315,-2.266925
1504976,Nova Ipixuna,2477.0,PA,-49.082194,-4.916221
1505007,Nova Timboteua,2478.0,PA,-47.392062,-1.20874
1505031,Novo Progresso,2479.0,PA,-55.378591,-7.143465
1505064,Novo Repartimento,2480.0,PA,-49.949928,-4.247492
1505106,Óbidos,2481.0,PA,-55.520812,-1.901072
1505205,Oeiras do Pará,2482.0,PA,-49.862792,-2.003576
1505304,Oriximiná,2483.0,PA,-55.857937,-1.759888
1505403,Ourém,2484.0,PA,-47.112649,-1.541676
1505437,Ourilândia do Norte,2485.0,PA,-51.085792,-6.752905
1505486,Pacajá,2486.0,PA,-50.638625,-3.837314
1505494,Palestina do Pará,2487.0,PA,-48.318076,-5.740269
1505502,Paragominas,2488.0,PA,-47.352692,-3.002116
1505536,Parauapebas,2489.0,PA,-49.903733,-6.067812
1505551,Pau D'Arco,,,,
1505601,Peixe-Boi,2491.0,PA,-47.324031,-1.193824
1505635,Piçarra,2492.0,PA,-48.871633,-6.437783
1505650,Placas,2493.0,PA,-54.212371,-3.868131
1505700,Ponta de Pedras,2494.0,PA,-48.866073,-1.395873
1505809,Portel,2495.0,PA,-50.81942,-1.936388
1505908,Porto de Moz,2496.0,PA,-52.236071,-1.746906
1506005,Prainha,2497.0,PA,-53.477903,-1.797999
1506104,Primavera,2498.0,PA,-47.12527,-0.945439
1506104,Primavera,2896.0,PE,-35.354378,-8.329987
1506112,Quatipuru,2499.0,PA,-47.013434,-0.899604
1506138,Redenção,772.0,CE,-38.727719,-4.215873
1506138,Redenção,2500.0,PA,-50.031687,-8.025294
1506161,Rio Maria,2501.0,PA,-50.037875,-7.312358
1506187,Rondon do Pará,2502.0,PA,-48.066966,-4.777927
1506195,Rurópolis,2503.0,PA,-54.909167,-4.100279
1506203,Salinópolis,2504.0,PA,-47.346523,-0.630815
1506302,Salvaterra,2505.0,PA,-48.513921,-0.758444
1506351,Santa Bárbara do Pará,2506.0,PA,-48.295101,-1.226144
1506401,Santa Cruz do Arari,2507.0,PA,-49.177139,-0.661019
1506500,Santa Isabel do Pará,2508.0,PA,-48.156622,-1.297847
1506559,Santa Luzia do Pará,2509.0,PA,-46.900829,-1.52147
1506583,Santa Maria das Barreiras,2510.0,PA,-49.721472,-8.857838
1506609,Santa Maria do Pará,2511.0,PA,-47.571166,-1.353918
1506708,Santana do Araguaia,2512.0,PA,-50.350036,-9.328099
1506807,Santarém,2513.0,PA,-54.699611,-2.438489
1506807,Santarém,2716.0,PB,-38.476393,-6.48362
1506906,Santarém Novo,2514.0,PA,-47.385457,-0.93097
1507003,Santo Antônio do Tauá,2515.0,PA,-48.131446,-1.1522
1507102,São Caetano de Odivelas,2516.0,PA,-48.024622,-0.747293
1507151,São Domingos do Araguaia,2517.0,PA,-48.736649,-5.537324
1507201,São Domingos do Capim,2518.0,PA,-47.76646,-1.687684
1507300,São Félix do Xingu,2519.0,PA,-51.990382,-6.642535
1507409,São Francisco do Pará,2520.0,PA,-47.791676,-1.169632
1507458,São Geraldo do Araguaia,2521.0,PA,-48.559169,-6.394715
1507466,São João da Ponta,2522.0,PA,-47.918022,-0.857885
1507474,São João de Pirabas,2523.0,PA,-47.181036,-0.780222
1507508,São João do Araguaia,2524.0,PA,-48.792637,-5.363336
1507607,São Miguel do Guamá,2525.0,PA,-47.478382,-1.613072
1507706,São Sebastião da Boa Vista,2526.0,PA,-49.524893,-1.715972
1507755,Sapucaia,2527.0,PA,-49.683408,-6.940181
1507755,Sapucaia,3651.0,RJ,-42.914194,-21.994867
1507805,Senador José Porfírio,2528.0,PA,-51.948701,-2.585981
1507904,Soure,2529.0,PA,-48.501536,-0.73032
1507953,Tailândia,2530.0,PA,-48.948873,-2.945839
1507961,Terra Alta,2531.0,PA,-47.900433,-1.029627
1507979,Terra Santa,2532.0,PA,-56.487653,-2.104435
1508001,Tomé-Açu,2533.0,PA,-48.1541,-2.418028
1508035,Tracuateua,2534.0,PA,-46.898131,-1.07427
1508050,Trairão,2535.0,PA,-55.942859,-4.573474
1508084,Tucumã,2536.0,PA,-51.162613,-6.746874
1508100,Tucuruí,2537.0,PA,-49.677336,-3.765702
1508126,Ulianópolis,2538.0,PA,-47.489239,-3.750074
1508159,Uruará,2539.0,PA,-53.739644,-3.715189
1508209,Vigia,2540.0,PA,-48.138649,-0.861194
1508308,Viseu,2541.0,PA,-46.139906,-1.19124
1508357,Vitória do Xingu,2542.0,PA,-52.008764,-2.879219
1508407,Xinguara,2543.0,PA,-49.943672,-7.098301
1600055,Serra do Navio,201.0,AP,-52.003636,0.901357
1600105,Amapá,188.0,AP,-50.795653,2.052669
1600154,Pedra Branca do Amapari,,,,
1600204,Calçoene,189.0,AP,-50.951233,2.504747
1600212,Cutias,190.0,AP,-50.799169,0.987565
1600238,Ferreira Gomes,191.0,AP,-51.179523,0.857256
1600253,Itaubal,192.0,AP,-50.670828,0.596137
1600279,Laranjal do Jari,193.0,AP,-52.452962,-0.804911
1600303,Macapá,194.0,AP,-51.069395,0.034934
1600402,Mazagão,195.0,AP,-51.28913,-0.11336
1600501,Oiapoque,196.0,AP,-51.833123,3.84074
1600535,Porto Grande,198.0,AP,-51.415499,0.71243
1600550,Pracuúba,199.0,AP,-50.789248,1.745427
1600600,Santana,200.0,AP,-51.172924,-0.045434
1600600,Santana,547.0,BA,-44.05064,-12.979217
1600709,Tartarugalzinho,202.0,AP,-50.90874,1.506519
1600808,Vitória do Jari,203.0,AP,-52.424001,-0.938
1700251,Abreulândia,5377.0,TO,-49.151845,-9.621015
1700301,Aguiarnópolis,5378.0,TO,-47.470222,-6.554087
1700350,Aliança do Tocantins,5379.0,TO,-48.936097,-11.305565
1700400,Almas,5380.0,TO,-47.179197,-11.570553
1700707,Alvorada,3906.0,RS,-51.080857,-29.9914
1700707,Alvorada,5381.0,TO,-49.124926,-12.478465
1701002,Ananás,5382.0,TO,-48.073466,-6.364369
1701051,Angico,5383.0,TO,-47.861142,-6.391789
1701101,Aparecida do Rio Negro,5384.0,TO,-47.963753,-9.941386
1701309,Aragominas,5385.0,TO,-48.529096,-7.160051
1701903,Araguacema,5386.0,TO,-49.556886,-8.807547
1702000,Araguaçu,5387.0,TO,-49.823134,-12.928934
1702109,Araguaína,5388.0,TO,-48.204402,-7.192375
1702158,Araguanã,1141.0,MA,-45.658946,-2.946441
1702158,Araguanã,5389.0,TO,-48.639542,-6.582247
1702208,Araguatins,5390.0,TO,-48.123198,-5.646591
1702307,Arapoema,5391.0,TO,-49.063702,-7.654634
1702406,Arraias,5392.0,TO,-46.935891,-12.92867
1702554,Augustinópolis,5393.0,TO,-47.886266,-5.468629
1702703,Aurora do Tocantins,5394.0,TO,-46.407604,-12.71045
1702901,Axixá do Tocantins,5395.0,TO,-47.77007,-5.612747
1703008,Babaçulândia,5396.0,TO,-47.761257,-7.209227
1703057,Bandeirantes do Tocantins,5397.0,TO,-48.583567,-7.756125
1703073,Barra do Ouro,5398.0,TO,-47.677609,-7.695929
1703107,Barrolândia,5399.0,TO,-48.725203,-9.834042
1703206,Bernardo Sayão,5400.0,TO,-48.889273,-7.874812
1703305,Bom Jesus do Tocantins,2422.0,PA,-48.604701,-5.042402
1703305,Bom Jesus do Tocantins,5401.0,TO,-48.165043,-8.96306
1703602,Brasilândia do Tocantins,5402.0,TO,-48.482213,-8.389182
1703701,Brejinho de Nazaré,5403.0,TO,-48.568278,-11.005754
1703800,Buriti do Tocantins,5404.0,TO,-48.227134,-5.314483
1703826,Cachoeirinha,2799.0,PE,-36.240182,-8.486685
1703826,Cachoeirinha,3952.0,RS,-51.101606,-29.947222
1703826,Cachoeirinha,5405.0,TO,-47.923399,-6.115596
1703842,Campos Lindos,5406.0,TO,-46.864473,-7.989563
1703867,Cariri do Tocantins,5407.0,TO,-49.160876,-11.888081
1703883,Carmolândia,5408.0,TO,-48.397809,-7.032616
1703891,Carrasco Bonito,5409.0,TO,-48.031416,-5.314152
1703909,Caseara,5410.0,TO,-49.952123,-9.276121
1704105,Centenário,3984.0,RS,-51.998408,-27.761547
1704105,Centenário,5411.0,TO,-47.330382,-8.961031
1704600,Chapada de Areia,5413.0,TO,-49.140277,-10.141933
1705102,Chapada da Natividade,5412.0,TO,-47.748614,-11.617507
1705508,Colinas do Tocantins,5414.0,TO,-48.475728,-8.05764
1705557,Combinado,5416.0,TO,-46.538775,-12.791717
1705607,Conceição do Tocantins,5417.0,TO,-47.295103,-12.220874
1706001,Couto Magalhães,,,,
1706100,Cristalândia,5419.0,TO,-49.194202,-10.59848
1706258,Crixás do Tocantins,5420.0,TO,-48.915194,-11.099375
1706506,Darcinópolis,5421.0,TO,-47.759709,-6.715912
1707009,Dianópolis,5422.0,TO,-46.819787,-11.624008
1707108,Divinópolis do Tocantins,5423.0,TO,-49.216849,-9.800181
1707207,Dois Irmãos do Tocantins,5424.0,TO,-49.063756,-9.255336
1707306,Dueré,5425.0,TO,-49.271566,-11.341631
1707405,Esperantina,3029.0,PI,-42.232422,-3.888631
1707405,Esperantina,5426.0,TO,-48.537771,-5.365928
1707553,Fátima,330.0,BA,-38.223891,-10.616013
1707553,Fátima,5427.0,TO,-48.907583,-10.760259
1707652,Figueirópolis,5428.0,TO,-49.174771,-12.131175
1707702,Filadélfia,333.0,BA,-40.14371,-10.740475
1707702,Filadélfia,5429.0,TO,-47.495446,-7.335011
1708205,Formoso do Araguaia,5430.0,TO,-49.531571,-11.797573
1708254,Fortaleza do Tabocão,5431.0,TO,-48.520563,-9.056106
1708304,Goianorte,5432.0,TO,-48.931291,-8.774126
1709005,Goiatins,5433.0,TO,-47.325189,-7.71478
1709302,Guaraí,5434.0,TO,-48.511432,-8.835429
1709500,Gurupi,5435.0,TO,-49.068046,-11.72794
1709807,Ipueiras,701.0,CE,-40.711764,-4.538021
1709807,Ipueiras,5436.0,TO,-48.460024,-11.2329
1710508,Itacajá,5437.0,TO,-47.772615,-8.392935
1710706,Itaguatins,5438.0,TO,-47.48641,-5.772667
1710904,Itapiratins,5439.0,TO,-48.107192,-8.379815
1711100,Itaporã do Tocantins,5440.0,TO,-48.689481,-8.571722
1711506,Jaú do Tocantins,5441.0,TO,-48.588989,-12.650908
1711803,Juarina,5442.0,TO,-49.064347,-8.119507
1711902,Lagoa da Confusão,5443.0,TO,-49.619948,-10.790637
1711951,Lagoa do Tocantins,5444.0,TO,-47.537979,-10.367977
1712009,Lajeado,4112.0,RS,-51.964427,-29.459086
1712009,Lajeado,5445.0,TO,-48.356482,-9.749956
1712157,Lavandeira,5446.0,TO,-46.509894,-12.78473
1712405,Lizarda,5447.0,TO,-46.673813,-9.590022
1712454,Luzinópolis,5448.0,TO,-47.858155,-6.177935
1712504,Marianópolis do Tocantins,5449.0,TO,-49.65526,-9.793768
1712702,Mateiros,5450.0,TO,-46.416758,-10.546379
1712801,Maurilândia do Tocantins,5451.0,TO,-47.512492,-5.951688
1713205,Miracema do Tocantins,5452.0,TO,-48.39298,-9.565556
1713304,Miranorte,5453.0,TO,-48.592222,-9.529068
1713601,Monte do Carmo,5454.0,TO,-48.111426,-10.761054
1713700,Monte Santo do Tocantins,5455.0,TO,-48.99408,-10.00747
1713809,Palmeiras do Tocantins,5467.0,TO,-47.546429,-6.616584
1713957,Muricilândia,5456.0,TO,-48.609135,-7.14669
1714203,Natividade,3617.0,RJ,-41.969663,-21.038974
1714203,Natividade,5457.0,TO,-47.722344,-11.703428
1714302,Nazaré,474.0,BA,-39.010835,-13.023491
1714302,Nazaré,5458.0,TO,-47.664299,-6.37496
1714880,Nova Olinda,741.0,CE,-39.67128,-7.084145
1714880,Nova Olinda,2671.0,PB,-38.038229,-7.472325
1714880,Nova Olinda,5459.0,TO,-48.425232,-7.631712
1715002,Nova Rosalândia,5460.0,TO,-48.912477,-10.565102
1715101,Novo Acordo,5461.0,TO,-47.678533,-9.970633
1715150,Novo Alegre,5462.0,TO,-46.571252,-12.921687
1715259,Novo Jardim,5463.0,TO,-46.632471,-11.825965
1715507,Oliveira de Fátima,5464.0,TO,-48.90861,-10.706956
1715705,Palmeirante,5466.0,TO,-47.924191,-7.847861
1715754,Palmeirópolis,5468.0,TO,-48.402589,-13.044718
1716109,Paraíso do Tocantins,5469.0,TO,-48.882269,-10.174998
1716208,Paranã,5470.0,TO,-47.873378,-12.616747
1716307,Pau D'Arco,,,,
1716505,Pedro Afonso,5472.0,TO,-48.172942,-8.970341
1716604,Peixe,5473.0,TO,-48.539508,-12.025425
1716653,Pequizeiro,5474.0,TO,-48.93269,-8.593204
1716703,Colméia,5415.0,TO,-48.763753,-8.724627
1717008,Pindorama do Tocantins,5475.0,TO,-47.57263,-11.131074
1717206,Piraquê,5476.0,TO,-48.295796,-6.77302
1717503,Pium,5477.0,TO,-49.187619,-10.442025
1717800,Ponte Alta do Bom Jesus,5478.0,TO,-46.482541,-12.085297
1717909,Ponte Alta do Tocantins,5479.0,TO,-47.527577,-10.748118
1718006,Porto Alegre do Tocantins,5480.0,TO,-47.062126,-11.61797
1718204,Porto Nacional,5481.0,TO,-48.408008,-10.702705
1718303,Praia Norte,5482.0,TO,-47.811144,-5.392812
1718402,Presidente Kennedy,865.0,ES,-41.0468,-21.096358
1718402,Presidente Kennedy,5483.0,TO,-48.506232,-8.540599
1718451,Pugmil,5484.0,TO,-48.895738,-10.424047
1718501,Recursolândia,5485.0,TO,-47.242107,-8.7227
1718550,Riachinho,1978.0,MG,-45.988755,-16.225802
1718550,Riachinho,5486.0,TO,-48.137056,-6.440054
1718659,Rio da Conceição,5487.0,TO,-46.884664,-11.394863
1718709,Rio dos Bois,5488.0,TO,-48.524518,-9.344254
1718758,Rio Sono,5489.0,TO,-47.887968,-9.35002
1718808,Sampaio,5490.0,TO,-47.878184,-5.354233
1718840,Sandolândia,5491.0,TO,-49.924216,-12.537983
1718865,Santa Fé do Araguaia,5492.0,TO,-48.716462,-7.158034
1718881,Santa Maria do Tocantins,5493.0,TO,-47.788708,-8.804598
1718899,Santa Rita do Tocantins,5494.0,TO,-48.916113,-10.861724
1718907,Santa Rosa do Tocantins,5495.0,TO,-48.121627,-11.447392
1719004,Santa Tereza do Tocantins,5496.0,TO,-47.803285,-10.274621
1720002,Santa Terezinha do Tocantins,5497.0,TO,-47.668393,-6.44438
1720101,São Bento do Tocantins,5498.0,TO,-47.901161,-6.025802
1720150,São Félix do Tocantins,5499.0,TO,-46.661786,-10.161465
1720200,São Miguel do Tocantins,5500.0,TO,-47.574288,-5.563051
1720259,São Salvador do Tocantins,5501.0,TO,-48.235157,-12.745754
1720309,São Sebastião do Tocantins,5502.0,TO,-48.202105,-5.261311
1720499,São Valério da Natividade,5503.0,TO,-48.235315,-11.974315
1720655,Silvanópolis,5504.0,TO,-48.16937,-11.147099
1720804,Sítio Novo do Tocantins,5505.0,TO,-47.63809,-5.601205
1720853,Sucupira,5506.0,TO,-48.96851,-11.993034
1720903,Taguatinga,806.0,DF,-48.0323,-15.5
1720903,Taguatinga,5623.0,TO,-46.436967,-12.40263
1720937,Taipas do Tocantins,5507.0,TO,-46.979681,-12.187341
1720978,Talismã,5508.0,TO,-49.089582,-12.794879
1721000,Palmas,3420.0,PR,-51.988812,-26.483868
1721000,Palmas,5465.0,TO,-48.355751,-10.239973
1721109,Tocantínia,5509.0,TO,-48.374104,-9.563198
1721208,Tocantinópolis,5510.0,TO,-47.4224,-6.324474
1721257,Tupirama,5511.0,TO,-48.188324,-8.971676
1721307,Tupiratins,5512.0,TO,-48.127744,-8.39388
1722081,Wanderlândia,5513.0,TO,-47.96014,-6.852742
1722107,Xambioá,5514.0,TO,-48.531974,-6.414104
2100055,Açailândia,1127.0,MA,-47.500383,-4.947137
2100105,Afonso Cunha,1128.0,MA,-43.327527,-4.136313
2100154,Água Doce do Maranhão,1129.0,MA,-42.118903,-2.840479
2100204,Alcântara,1130.0,MA,-44.406182,-2.395737
2100303,Aldeias Altas,1131.0,MA,-43.468931,-4.626213
2100402,Altamira do Maranhão,1132.0,MA,-45.470616,-4.16598
2100436,Alto Alegre do Maranhão,1133.0,MA,-44.446,-4.213
2100477,Alto Alegre do Pindaré,1134.0,MA,-45.842111,-3.666886
2100501,Alto Parnaíba,1135.0,MA,-45.930328,-9.102733
2100550,Amapá do Maranhão,1136.0,MA,-46.002442,-1.675241
2100600,Amarante do Maranhão,1137.0,MA,-46.747284,-5.56913
2100709,Anajatuba,1138.0,MA,-44.612594,-3.262693
2100808,Anapurus,1139.0,MA,-43.101449,-3.675769
2100832,Apicum-Açu,1140.0,MA,-45.08645,-1.458622
2100873,Araguanã,1141.0,MA,-45.658946,-2.946441
2100873,Araguanã,5389.0,TO,-48.639542,-6.582247
2100907,Araioses,1142.0,MA,-41.904993,-2.890914
2100956,Arame,1143.0,MA,-46.003201,-4.88347
2101004,Arari,1144.0,MA,-44.766459,-3.452136
2101103,Axixá,1145.0,MA,-44.061967,-2.839385
2101202,Bacabal,1146.0,MA,-44.783183,-4.224467
2101251,Bacabeira,1147.0,MA,-44.316373,-2.964519
2101301,Bacuri,1148.0,MA,-45.132839,-1.696501
2101350,Bacurituba,1149.0,MA,-44.732877,-2.709998
2101400,Balsas,1150.0,MA,-46.037163,-7.53214
2101509,Barão de Grajaú,1151.0,MA,-43.026109,-6.744628
2101608,Barra do Corda,1152.0,MA,-45.248496,-5.496823
2101707,Barreirinhas,1153.0,MA,-42.823241,-2.75863
2101731,Belágua,1154.0,MA,-43.512153,-3.154854
2101772,Bela Vista do Maranhão,1155.0,MA,-45.307487,-3.726175
2101806,Benedito Leite,1156.0,MA,-44.557705,-7.210368
2101905,Bequimão,1157.0,MA,-44.784199,-2.441621
2101939,Bernardo do Mearim,1158.0,MA,-44.760753,-4.626663
2101970,Boa Vista do Gurupi,1159.0,MA,-46.300223,-1.776137
2102002,Bom Jardim,1160.0,MA,-45.606004,-3.54129
2102002,Bom Jardim,2790.0,PE,-35.578391,-7.796947
2102002,Bom Jardim,3581.0,RJ,-42.425095,-22.154526
2102036,Bom Jesus das Selvas,1161.0,MA,-46.864118,-4.476382
2102077,Bom Lugar,1162.0,MA,-45.03265,-4.373113
2102101,Brejo,1163.0,MA,-42.752704,-3.677957
2102150,Brejo de Areia,1164.0,MA,-45.581,-4.334
2102200,Buriti,1165.0,MA,-42.917936,-3.941692
2102309,Buriti Bravo,1166.0,MA,-43.835288,-5.832392
2102325,Buriticupu,1167.0,MA,-46.440883,-4.323755
2102358,Buritirana,1168.0,MA,-47.013088,-5.598233
2102374,Cachoeira Grande,1169.0,MA,-44.052763,-2.930745
2102408,Cajapió,1170.0,MA,-44.674097,-2.873262
2102507,Cajari,1171.0,MA,-45.014498,-3.327416
2102556,Campestre do Maranhão,1172.0,MA,-47.362468,-6.170747
2102606,Cândido Mendes,1173.0,MA,-45.716112,-1.43265
2102705,Cantanhede,1174.0,MA,-44.383024,-3.637569
2102754,Capinzal do Norte,1175.0,MA,-44.328045,-4.723603
2102804,Carolina,1176.0,MA,-47.463422,-7.335839
2102903,Carutapera,1177.0,MA,-46.008547,-1.196957
2103000,Caxias,1178.0,MA,-43.361749,-4.865053
2103109,Cedral,1179.0,MA,-44.528114,-2.000269
2103109,Cedral,4860.0,SP,-49.266426,-20.900949
2103125,Central do Maranhão,1180.0,MA,-44.825385,-2.198312
2103158,Centro do Guilherme,1181.0,MA,-46.034486,-2.448908
2103174,Centro Novo do Maranhão,1182.0,MA,-46.122841,-2.126963
2103208,Chapadinha,1183.0,MA,-43.353848,-3.738754
2103257,Cidelândia,1184.0,MA,-47.778145,-5.174655
2103307,Codó,1185.0,MA,-43.892354,-4.455623
2103406,Coelho Neto,1186.0,MA,-43.01078,-4.252454
2103505,Colinas,1187.0,MA,-44.254345,-6.031986
2103505,Colinas,3998.0,RS,-51.855564,-29.394781
2103554,Conceição do Lago-Açu,1188.0,MA,-44.889531,-3.851417
2103604,Coroatá,1189.0,MA,-44.124414,-4.134422
2103703,Cururupu,1190.0,MA,-44.864433,-1.814746
2103752,Davinópolis,961.0,GO,-47.556795,-18.150084
2103752,Davinópolis,1191.0,MA,-47.421665,-5.546372
2103802,Dom Pedro,1192.0,MA,-44.440883,-5.035182
2103901,Duque Bacelar,1193.0,MA,-42.947696,-4.150019
2104008,Esperantinópolis,1194.0,MA,-44.692649,-4.879378
2104057,Estreito,1195.0,MA,-47.443072,-6.560775
2104073,Feira Nova do Maranhão,1196.0,MA,-46.678577,-6.965082
2104081,Fernando Falcão,1197.0,MA,-44.897876,-6.162069
2104099,Formosa da Serra Negra,1198.0,MA,-46.191583,-6.440173
2104107,Fortaleza dos Nogueiras,1199.0,MA,-46.174893,-6.959826
2104206,Fortuna,1200.0,MA,-44.156496,-5.727921
2104305,Godofredo Viana,1201.0,MA,-45.77946,-1.402591
2104404,Gonçalves Dias,1202.0,MA,-44.301351,-5.147501
2104503,Governador Archer,1203.0,MA,-44.275412,-5.020778
2104552,Governador Edison Lobão,1204.0,MA,-47.364593,-5.749727
2104602,Governador Eugênio Barros,1205.0,MA,-44.246901,-5.318973
2104628,Governador Luiz Rocha,1206.0,MA,-44.077433,-5.478353
2104651,Governador Newton Bello,1207.0,MA,-45.661939,-3.432447
2104677,Governador Nunes Freire,1208.0,MA,-45.87768,-2.128991
2104701,Graça Aranha,1209.0,MA,-44.335816,-5.405468
2104800,Grajaú,1210.0,MA,-46.146233,-5.81367
2104909,Guimarães,1211.0,MA,-44.60199,-2.127551
2105005,Humberto de Campos,1212.0,MA,-43.464877,-2.598282
2105104,Icatu,1213.0,MA,-44.050061,-2.772065
2105153,Igarapé do Meio,1214.0,MA,-45.211372,-3.657714
2105203,Igarapé Grande,1215.0,MA,-44.855833,-4.6625
2105302,Imperatriz,1216.0,MA,-47.477726,-5.518471
2105351,Itaipava do Grajaú,1217.0,MA,-45.787736,-5.142517
2105401,Itapecuru Mirim,1218.0,MA,-44.350848,-3.402019
2105427,Itinga do Maranhão,1219.0,MA,-47.523507,-4.452925
2105450,Jatobá,1220.0,MA,-44.215325,-5.822821
2105450,Jatobá,2857.0,PE,-38.260651,-9.174761
2105476,Jenipapo dos Vieiras,1221.0,MA,-45.635607,-5.362375
2105500,João Lisboa,1222.0,MA,-47.406388,-5.44363
2105609,Joselândia,1223.0,MA,-44.695834,-4.986111
2105658,Junco do Maranhão,1224.0,MA,-46.090025,-1.838879
2105708,Lago da Pedra,1227.0,MA,-45.131912,-4.569743
2105807,Lago do Junco,1228.0,MA,-45.049001,-4.609
2105906,Lago Verde,1230.0,MA,-44.825997,-3.946611
2105922,Lagoa do Mato,1225.0,MA,-43.533313,-6.050229
2105948,Lago dos Rodrigues,1229.0,MA,-44.979763,-4.611735
2105963,Lagoa Grande do Maranhão,1226.0,MA,-45.381609,-4.988929
2105989,Lajeado Novo,1231.0,MA,-47.029292,-6.185385
2106003,Lima Campos,1232.0,MA,-44.464625,-4.518375
2106102,Loreto,1233.0,MA,-45.145081,-7.08111
2106201,Luís Domingues,1234.0,MA,-45.866979,-1.274924
2106300,Magalhães de Almeida,1235.0,MA,-42.211743,-3.392319
2106326,Maracaçumé,1236.0,MA,-45.958734,-2.049177
2106359,Marajá do Sena,1237.0,MA,-45.453116,-4.628062
2106375,Maranhãozinho,1238.0,MA,-45.850679,-2.240777
2106409,Mata Roma,1239.0,MA,-43.111204,-3.620354
2106508,Matinha,1240.0,MA,-45.035016,-3.098487
2106607,Matões,1241.0,MA,-43.201758,-5.513591
2106631,Matões do Norte,1242.0,MA,-44.546772,-3.624404
2106672,Milagres do Maranhão,1243.0,MA,-42.613121,-3.574429
2106706,Mirador,1244.0,MA,-44.368276,-6.374543
2106706,Mirador,3394.0,PR,-52.776081,-23.254951
2106755,Miranda do Norte,1245.0,MA,-44.581449,-3.563129
2106805,Mirinzal,1246.0,MA,-44.778655,-2.070935
2106904,Monção,1247.0,MA,-45.2496,-3.481254
2107001,Montes Altos,1248.0,MA,-47.067294,-5.830665
2107100,Morros,1249.0,MA,-44.035678,-2.853794
2107209,Nina Rodrigues,1250.0,MA,-43.91342,-3.467884
2107258,Nova Colinas,1251.0,MA,-46.260668,-7.122628
2107308,Nova Iorque,1252.0,MA,-44.047137,-6.730471
2107357,Nova Olinda do Maranhão,1253.0,MA,-45.695274,-2.842272
2107407,Olho d'Água das Cunhãs,,,,
2107456,Olinda Nova do Maranhão,1255.0,MA,-44.989748,-2.992949
2107506,Paço do Lumiar,1256.0,MA,-44.101886,-2.516573
2107605,Palmeirândia,1257.0,MA,-44.893271,-2.64433
2107704,Paraibano,1258.0,MA,-43.979243,-6.426403
2107803,Parnarama,1259.0,MA,-43.101096,-5.673646
2107902,Passagem Franca,1260.0,MA,-43.775511,-6.177451
2108009,Pastos Bons,1261.0,MA,-44.07454,-6.602958
2108058,Paulino Neves,1262.0,MA,-42.525848,-2.720941
2108108,Paulo Ramos,1263.0,MA,-45.23976,-4.444848
2108207,Pedreiras,1264.0,MA,-44.600637,-4.564817
2108256,Pedro do Rosário,1265.0,MA,-45.349316,-2.972719
2108306,Penalva,1266.0,MA,-45.176808,-3.276744
2108405,Peri Mirim,1267.0,MA,-44.850385,-2.576762
2108454,Peritoró,1268.0,MA,-44.336909,-4.374589
2108504,Pindaré-Mirim,1269.0,MA,-45.341988,-3.609851
2108603,Pinheiro,1270.0,MA,-45.078825,-2.522244
2108702,Pio XII,1271.0,MA,-45.175942,-3.893151
2108801,Pirapemas,1272.0,MA,-44.221632,-3.720412
2108900,Poção de Pedras,1273.0,MA,-44.943199,-4.74626
2109007,Porto Franco,1274.0,MA,-47.396188,-6.34149
2109056,Porto Rico do Maranhão,1275.0,MA,-44.584229,-1.859247
2109106,Presidente Dutra,516.0,BA,-41.984341,-11.292345
2109106,Presidente Dutra,1276.0,MA,-44.49498,-5.289801
2109205,Presidente Juscelino,1277.0,MA,-44.07148,-2.918724
2109205,Presidente Juscelino,1965.0,MG,-44.060032,-18.640106
2109239,Presidente Médici,1278.0,MA,-45.820014,-2.389908
2109239,Presidente Médici,3867.0,RO,-61.898617,-11.168974
2109270,Presidente Sarney,1279.0,MA,-45.359492,-2.587991
2109304,Presidente Vargas,1280.0,MA,-44.023403,-3.407866
2109403,Primeira Cruz,1281.0,MA,-43.423159,-2.505679
2109452,Raposa,1282.0,MA,-44.097343,-2.425399
2109502,Riachão,1283.0,MA,-46.622528,-7.358189
2109502,Riachão,2701.0,PB,-35.660966,-6.542688
2109551,Ribamar Fiquene,1284.0,MA,-47.388777,-5.930666
2109601,Rosário,1285.0,MA,-44.253065,-2.934443
2109700,Sambaíba,1286.0,MA,-45.351506,-7.134473
2109759,Santa Filomena do Maranhão,1287.0,MA,-44.563763,-5.496706
2109809,Santa Helena,1288.0,MA,-45.289976,-2.244263
2109809,Santa Helena,2711.0,PB,-38.6427,-6.7176
2109809,Santa Helena,3496.0,PR,-54.33601,-24.858494
2109809,Santa Helena,4591.0,SC,-53.621439,-26.936966
2109908,Santa Inês,543.0,BA,-39.813979,-13.2793
2109908,Santa Inês,1289.0,MA,-45.37745,-3.651118
2109908,Santa Inês,2712.0,PB,-38.553995,-7.620999
2109908,Santa Inês,3497.0,PR,-51.902385,-22.637595
2110005,Santa Luzia,545.0,BA,-39.328678,-15.434188
2110005,Santa Luzia,1290.0,MA,-45.690026,-4.068726
2110005,Santa Luzia,2018.0,MG,-43.849658,-19.754824
2110005,Santa Luzia,2713.0,PB,-36.917792,-6.860922
2110039,Santa Luzia do Paruá,1291.0,MA,-45.780137,-2.511229
2110104,Santa Quitéria do Maranhão,1293.0,MA,-42.568771,-3.493085
2110203,Santa Rita,1294.0,MA,-44.321078,-3.142409
2110203,Santa Rita,2717.0,PB,-34.975295,-7.117242
2110237,Santana do Maranhão,1292.0,MA,-42.406388,-3.109002
2110278,Santo Amaro do Maranhão,1295.0,MA,-43.238033,-2.500681
2110302,Santo Antônio dos Lopes,1296.0,MA,-44.365278,-4.866134
2110401,São Benedito do Rio Preto,1297.0,MA,-43.52872,-3.335147
2110500,São Bento,1298.0,MA,-44.828927,-2.697812
2110500,São Bento,2721.0,PB,-37.448835,-6.485286
2110609,São Bernardo,1299.0,MA,-42.41912,-3.372229
2110658,São Domingos do Azeitão,1300.0,MA,-44.650882,-6.814706
2110708,São Domingos do Maranhão,1301.0,MA,-44.382195,-5.580953
2110807,São Félix de Balsas,1302.0,MA,-44.809249,-7.075345
2110856,São Francisco do Brejão,1303.0,MA,-47.389018,-5.125844
2110906,São Francisco do Maranhão,1304.0,MA,-42.866767,-6.25159
2111003,São João Batista,1305.0,MA,-44.795324,-2.953978
2111003,São João Batista,4605.0,SC,-48.847395,-27.277186
2111029,São João do Carú,1306.0,MA,-46.250694,-3.550305
2111052,São João do Paraíso,1307.0,MA,-47.059355,-6.456341
2111052,São João do Paraíso,2079.0,MG,-42.021342,-15.316799
2111078,São João do Soter,1308.0,MA,-43.816257,-5.10821
2111102,São João dos Patos,1309.0,MA,-43.703623,-6.4934
2111201,São José de Ribamar,1310.0,MA,-44.059745,-2.54704
2111250,São José dos Basílios,1311.0,MA,-44.580937,-5.054931
2111300,São Luís,1312.0,MA,-44.282513,-2.538742
2111409,São Luís Gonzaga do Maranhão,1313.0,MA,-44.665404,-4.385409
2111508,São Mateus do Maranhão,1314.0,MA,-44.470691,-4.037361
2111532,São Pedro da Água Branca,1315.0,MA,-48.429117,-5.084718
2111573,São Pedro dos Crentes,1316.0,MA,-46.531864,-6.823889
2111607,São Raimundo das Mangabeiras,1317.0,MA,-45.48088,-7.021834
2111631,São Raimundo do Doca Bezerra,1318.0,MA,-45.069554,-5.110532
2111672,São Roberto,1319.0,MA,-45.000992,-5.023096
2111706,São Vicente Ferrer,1320.0,MA,-44.868074,-2.894871
2111706,São Vicente Ferrer,2924.0,PE,-35.480844,-7.589691
2111722,Satubinha,1321.0,MA,-45.245716,-4.049131
2111748,Senador Alexandre Costa,1322.0,MA,-44.053347,-5.250956
2111763,Senador La Rocque,1323.0,MA,-47.295941,-5.446098
2111789,Serrano do Maranhão,1324.0,MA,-45.120735,-1.852285
2111805,Sítio Novo,1325.0,MA,-46.703329,-5.876006
2111805,Sítio Novo,3812.0,RN,-35.908974,-6.111322
2111904,Sucupira do Norte,1326.0,MA,-44.191889,-6.478392
2111953,Sucupira do Riachão,1327.0,MA,-43.545472,-6.408584
2112001,Tasso Fragoso,1328.0,MA,-45.753647,-8.466203
2112100,Timbiras,1329.0,MA,-43.931956,-4.255971
2112209,Timon,1330.0,MA,-42.83292,-5.097692
2112233,Trizidela do Vale,1331.0,MA,-44.628,-4.538
2112274,Tufilândia,1332.0,MA,-45.623781,-3.67355
2112308,Tuntum,1333.0,MA,-44.644367,-5.254761
2112407,Turiaçu,1334.0,MA,-45.379791,-1.658925
2112456,Turilândia,1335.0,MA,-45.304411,-2.216382
2112506,Tutóia,1336.0,MA,-42.275531,-2.761413
2112605,Urbano Santos,1337.0,MA,-43.387838,-3.206417
2112704,Vargem Grande,1338.0,MA,-43.91696,-3.536385
2112803,Viana,880.0,ES,-40.493292,-20.382503
2112803,Viana,1339.0,MA,-44.991177,-3.20451
2112852,Vila Nova dos Martírios,1340.0,MA,-48.133611,-5.18889
2112902,Vitória do Mearim,1341.0,MA,-44.864299,-3.451248
2113009,Vitorino Freire,1342.0,MA,-45.250524,-4.281836
2114007,Zé Doca,1343.0,MA,-45.655344,-3.270145
2200053,Acauã,2952.0,PI,-41.083059,-8.219542
2200103,Agricolândia,2953.0,PI,-42.666371,-5.796763
2200202,Água Branca,24.0,AL,-37.937988,-9.261996
2200202,Água Branca,2544.0,PB,-37.635703,-7.511441
2200202,Água Branca,2954.0,PI,-42.636961,-5.888564
2200251,Alagoinha do Piauí,2955.0,PI,-40.92817,-7.000392
2200277,Alegrete do Piauí,2956.0,PI,-40.856587,-7.241964
2200301,Alto Longá,2957.0,PI,-42.209582,-5.256341
2200400,Altos,2958.0,PI,-42.46116,-5.038879
2200459,Alvorada do Gurguéia,2959.0,PI,-43.777016,-8.424183
2200509,Amarante,2960.0,PI,-42.843343,-6.243045
2200608,Angical do Piauí,2961.0,PI,-42.740047,-6.087864
2200707,Anísio de Abreu,2962.0,PI,-43.04941,-9.185643
2200806,Antônio Almeida,2963.0,PI,-44.188929,-7.212759
2200905,Aroazes,2964.0,PI,-41.78218,-6.110221
2200954,Aroeiras do Itaim,5626.0,PI,-41.564868,-7.276906
2201002,Arraial,2965.0,PI,-42.541809,-6.650753
2201051,Assunção do Piauí,2966.0,PI,-41.038851,-5.864996
2201101,Avelino Lopes,2967.0,PI,-43.956305,-10.134487
2201150,Baixa Grande do Ribeiro,2968.0,PI,-45.218977,-7.849031
2201176,Barra D'Alcântara,,,,
2201200,Barras,2970.0,PI,-42.292161,-4.244675
2201309,Barreiras do Piauí,2971.0,PI,-45.470172,-9.929605
2201408,Barro Duro,2972.0,PI,-42.514656,-5.816732
2201507,Batalha,30.0,AL,-37.133014,-9.674195
2201507,Batalha,2973.0,PI,-42.07868,-4.0223
2201556,Bela Vista do Piauí,2974.0,PI,-41.867522,-7.988091
2201572,Belém do Piauí,2975.0,PI,-40.968786,-7.366524
2201606,Beneditinos,2976.0,PI,-42.36382,-5.456758
2201705,Bertolínia,2977.0,PI,-43.949778,-7.633377
2201739,Betânia do Piauí,2978.0,PI,-40.79891,-8.143761
2201770,Boa Hora,2979.0,PI,-42.135748,-4.414041
2201804,Bocaina,2980.0,PI,-41.316752,-6.941236
2201804,Bocaina,4808.0,SP,-48.523044,-22.136538
2201903,Bom Jesus,2574.0,PB,-38.645344,-6.81601
2201903,Bom Jesus,2981.0,PI,-44.358951,-9.071239
2201903,Bom Jesus,3682.0,RN,-35.579196,-5.986479
2201903,Bom Jesus,3940.0,RS,-50.429453,-28.669703
2201903,Bom Jesus,4404.0,SC,-52.3919,-26.732595
2201919,Bom Princípio do Piauí,2982.0,PI,-41.640333,-3.196314
2201929,Bonfim do Piauí,2983.0,PI,-42.886482,-9.160502
2201945,Boqueirão do Piauí,2984.0,PI,-42.121232,-4.481806
2201960,Brasileira,2985.0,PI,-41.785855,-4.133696
2201988,Brejo do Piauí,2986.0,PI,-42.822917,-8.20314
2202000,Buriti dos Lopes,2987.0,PI,-41.869481,-3.182592
2202026,Buriti dos Montes,2988.0,PI,-41.093349,-5.30584
2202059,Cabeceiras do Piauí,2989.0,PI,-42.306889,-4.4773
2202075,Cajazeiras do Piauí,2990.0,PI,-42.390278,-6.796667
2202083,Cajueiro da Praia,2991.0,PI,-41.340801,-2.931114
2202091,Caldeirão Grande do Piauí,2992.0,PI,-40.6366,-7.331404
2202109,Campinas do Piauí,2993.0,PI,-41.877487,-7.659299
2202117,Campo Alegre do Fidalgo,2994.0,PI,-41.834399,-8.382357
2202133,Campo Grande do Piauí,2995.0,PI,-41.031486,-7.128274
2202174,Campo Largo do Piauí,2996.0,PI,-42.639991,-3.804411
2202208,Campo Maior,2997.0,PI,-42.164124,-4.821697
2202251,Canavieira,2998.0,PI,-43.72333,-7.688215
2202307,Canto do Buriti,2999.0,PI,-42.951721,-8.111101
2202406,Capitão de Campos,3000.0,PI,-41.943999,-4.457
2202455,Capitão Gervásio Oliveira,3001.0,PI,-41.813973,-8.496548
2202505,Caracol,2217.0,MS,-57.027672,-22.011017
2202505,Caracol,3002.0,PI,-43.328998,-9.279333
2202539,Caraúbas do Piauí,3003.0,PI,-41.842517,-3.475249
2202554,Caridade do Piauí,3004.0,PI,-40.984763,-7.734349
2202604,Castelo do Piauí,3005.0,PI,-41.549865,-5.318693
2202653,Caxingó,3006.0,PI,-41.895476,-3.419044
2202703,Cocal,3007.0,PI,-41.554623,-3.472792
2202711,Cocal de Telha,3008.0,PI,-41.958668,-4.557098
2202729,Cocal dos Alves,3009.0,PI,-41.440197,-3.620471
2202737,Coivaras,3010.0,PI,-42.207951,-5.092242
2202752,Colônia do Gurguéia,3011.0,PI,-43.793999,-8.183697
2202778,Colônia do Piauí,3012.0,PI,-42.175555,-7.226512
2202802,Conceição do Canindé,3013.0,PI,-41.594193,-7.876378
2202851,Coronel José Dias,3014.0,PI,-42.523195,-8.813971
2202901,Corrente,3015.0,PI,-45.163348,-10.433349
2203008,Cristalândia do Piauí,3016.0,PI,-45.189262,-10.644311
2203107,Cristino Castro,3017.0,PI,-44.222972,-8.822731
2203206,Curimatá,3018.0,PI,-44.3002,-10.032608
2203230,Currais,3019.0,PI,-44.406194,-9.011755
2203255,Curralinhos,3020.0,PI,-42.837602,-5.608252
2203271,Curral Novo do Piauí,3021.0,PI,-40.895704,-7.831302
2203305,Demerval Lobão,3022.0,PI,-42.677583,-5.358752
2203354,Dirceu Arcoverde,3023.0,PI,-42.434792,-9.339386
2203404,Dom Expedito Lopes,3024.0,PI,-41.639632,-6.953319
2203420,Domingos Mourão,3025.0,PI,-41.268267,-4.249498
2203453,Dom Inocêncio,3026.0,PI,-41.969733,-9.005158
2203503,Elesbão Veloso,3027.0,PI,-42.135458,-6.199475
2203602,Eliseu Martins,3028.0,PI,-43.670481,-8.096286
2203701,Esperantina,3029.0,PI,-42.232422,-3.888631
2203701,Esperantina,5426.0,TO,-48.537771,-5.365928
2203750,Fartura do Piauí,3030.0,PI,-42.791176,-9.48342
2203800,Flores do Piauí,3031.0,PI,-42.918009,-7.787931
2203859,Floresta do Piauí,3032.0,PI,-41.788328,-7.466821
2203909,Floriano,3033.0,PI,-43.024136,-6.771821
2204006,Francinópolis,3034.0,PI,-42.259062,-6.393341
2204105,Francisco Ayres,3035.0,PI,-42.688149,-6.626064
2204154,Francisco Macedo,3036.0,PI,-40.787999,-7.331
2204204,Francisco Santos,3037.0,PI,-41.128789,-6.994914
2204303,Fronteiras,3038.0,PI,-40.614601,-7.081727
2204352,Geminiano,3039.0,PI,-41.340879,-7.154759
2204402,Gilbués,3040.0,PI,-45.342267,-9.830008
2204501,Guadalupe,3041.0,PI,-43.559441,-6.782848
2204550,Guaribas,3042.0,PI,-43.694341,-9.386465
2204600,Hugo Napoleão,3043.0,PI,-42.559755,-5.988597
2204659,Ilha Grande,3044.0,PI,-41.81858,-2.857737
2204709,Inhuma,3045.0,PI,-41.704127,-6.665001
2204808,Ipiranga do Piauí,3046.0,PI,-41.738086,-6.824215
2204907,Isaías Coelho,3047.0,PI,-41.673495,-7.735968
2205003,Itainópolis,3048.0,PI,-41.468713,-7.443357
2205102,Itaueira,3049.0,PI,-43.0249,-7.59989
2205151,Jacobina do Piauí,3050.0,PI,-41.207506,-7.930634
2205201,Jaicós,3051.0,PI,-41.137126,-7.362286
2205250,Jardim do Mulato,3052.0,PI,-42.629999,-6.099
2205276,Jatobá do Piauí,3053.0,PI,-41.816965,-4.770254
2205300,Jerumenha,3054.0,PI,-43.503319,-7.09128
2205359,João Costa,3055.0,PI,-42.426379,-8.50736
2205409,Joaquim Pires,3056.0,PI,-42.186462,-3.501636
2205458,Joca Marques,3057.0,PI,-42.425517,-3.480399
2205508,José de Freitas,3058.0,PI,-42.574586,-4.751458
2205516,Juazeiro do Piauí,3059.0,PI,-41.697561,-5.174589
2205524,Júlio Borges,3060.0,PI,-44.238142,-10.32253
2205532,Jurema,2862.0,PE,-36.134739,-8.707135
2205532,Jurema,3061.0,PI,-43.133676,-9.219924
2205540,Lagoinha do Piauí,3067.0,PI,-42.622325,-5.830742
2205557,Lagoa Alegre,3062.0,PI,-42.630876,-4.515394
2205565,Lagoa do Barro do Piauí,3064.0,PI,-41.5342,-8.476734
2205573,Lagoa de São Francisco,3063.0,PI,-41.596883,-4.385053
2205581,Lagoa do Piauí,3065.0,PI,-42.643659,-5.418639
2205599,Lagoa do Sítio,3066.0,PI,-41.565304,-6.507664
2205607,Landri Sales,3068.0,PI,-43.936418,-7.259218
2205706,Luís Correia,3069.0,PI,-41.664142,-2.88438
2205805,Luzilândia,3070.0,PI,-42.371757,-3.468296
2205854,Madeiro,3071.0,PI,-42.498072,-3.486245
2205904,Manoel Emídio,3072.0,PI,-43.87549,-8.01234
2205953,Marcolândia,3073.0,PI,-40.660179,-7.441691
2206001,Marcos Parente,3074.0,PI,-43.892602,-7.115649
2206050,Massapê do Piauí,3075.0,PI,-41.110323,-7.474687
2206100,Matias Olímpio,3076.0,PI,-42.550654,-3.714917
2206209,Miguel Alves,3077.0,PI,-42.896301,-4.168575
2206308,Miguel Leão,3078.0,PI,-42.743594,-5.68077
2206357,Milton Brandão,3079.0,PI,-41.417343,-4.682946
2206407,Monsenhor Gil,3080.0,PI,-42.607493,-5.561999
2206506,Monsenhor Hipólito,3081.0,PI,-41.026003,-6.992754
2206605,Monte Alegre do Piauí,3082.0,PI,-45.303735,-9.753638
2206654,Morro Cabeça no Tempo,3083.0,PI,-43.907246,-9.718905
2206670,Morro do Chapéu do Piauí,3084.0,PI,-42.302442,-3.733374
2206696,Murici dos Portelas,3085.0,PI,-42.094,-3.319
2206704,Nazaré do Piauí,3086.0,PI,-42.677316,-6.970235
2206753,Nossa Senhora de Nazaré,3087.0,PI,-42.172954,-4.630188
2206803,Nossa Senhora dos Remédios,3088.0,PI,-42.618408,-3.975744
2206902,Novo Oriente do Piauí,3090.0,PI,-41.926124,-6.44901
2206951,Novo Santo Antônio,5671.0,MT,-50.96857,-12.287538
2206951,Novo Santo Antônio,3091.0,PI,-41.932533,-5.287487
2207009,Oeiras,3092.0,PI,-42.128298,-7.019153
2207108,Olho D'Água do Piauí,,,,
2207207,Padre Marcos,3094.0,PI,-40.899665,-7.351011
2207306,Paes Landim,3095.0,PI,-42.247444,-7.773745
2207355,Pajeú do Piauí,3096.0,PI,-42.82481,-7.855085
2207405,Palmeira do Piauí,3097.0,PI,-44.246618,-8.730761
2207504,Palmeirais,3098.0,PI,-43.056021,-5.970864
2207553,Paquetá,3099.0,PI,-41.700031,-7.103031
2207603,Parnaguá,3100.0,PI,-44.630018,-10.216642
2207702,Parnaíba,3101.0,PI,-41.775388,-2.905847
2207751,Passagem Franca do Piauí,3102.0,PI,-42.44363,-5.860365
2207777,Patos do Piauí,3103.0,PI,-41.240817,-7.67231
2207793,Pau D'Arco do Piauí,,,,
2207801,Paulistana,3104.0,PI,-41.143072,-8.134357
2207850,Pavussu,3105.0,PI,-43.228438,-7.96059
2207900,Pedro II,3106.0,PI,-41.448184,-4.425845
2207934,Pedro Laurentino,3107.0,PI,-42.284744,-8.068068
2207959,Nova Santa Rita,3089.0,PI,-42.047127,-8.097073
2207959,Nova Santa Rita,4164.0,RS,-51.283736,-29.852474
2208007,Picos,3108.0,PI,-41.467003,-7.077213
2208106,Pimenteiras,3109.0,PI,-41.411273,-6.238391
2208205,Pio IX,3110.0,PI,-40.608301,-6.830017
2208304,Piracuruca,3111.0,PI,-41.708779,-3.93335
2208403,Piripiri,3112.0,PI,-41.771569,-4.271574
2208502,Porto,3113.0,PI,-42.69982,-3.888154
2208551,Porto Alegre do Piauí,3114.0,PI,-44.183668,-6.964228
2208601,Prata do Piauí,3115.0,PI,-42.204644,-5.672653
2208650,Queimada Nova,3116.0,PI,-41.410614,-8.570637
2208700,Redenção do Gurguéia,3117.0,PI,-44.581145,-9.479368
2208809,Regeneração,3118.0,PI,-42.684193,-6.23115
2208858,Riacho Frio,3119.0,PI,-44.950326,-10.124378
2208874,Ribeira do Piauí,3120.0,PI,-42.712778,-7.690278
2208908,Ribeiro Gonçalves,3121.0,PI,-45.244737,-7.556505
2209005,Rio Grande do Piauí,3122.0,PI,-43.136886,-7.780291
2209104,Santa Cruz do Piauí,3123.0,PI,-41.760932,-7.178499
2209153,Santa Cruz dos Milagres,3124.0,PI,-41.950644,-5.805808
2209203,Santa Filomena,2911.0,PE,-40.607854,-8.166877
2209203,Santa Filomena,3125.0,PI,-45.911607,-9.112278
2209302,Santa Luz,3126.0,PI,-44.129567,-8.948795
2209351,Santana do Piauí,3127.0,PI,-41.517767,-6.946961
2209377,Santa Rosa do Piauí,3128.0,PI,-42.281375,-6.79581
2209401,Santo Antônio de Lisboa,3129.0,PI,-41.225202,-6.986762
2209450,Santo Antônio dos Milagres,3130.0,PI,-42.712322,-6.046473
2209500,Santo Inácio do Piauí,3131.0,PI,-41.906252,-7.42072
2209559,São Braz do Piauí,3132.0,PI,-43.007646,-9.057967
2209609,São Félix do Piauí,3133.0,PI,-42.117179,-5.934853
2209658,São Francisco de Assis do Piauí,3134.0,PI,-41.681028,-8.239207
2209708,São Francisco do Piauí,3135.0,PI,-42.54101,-7.246299
2209757,São Gonçalo do Gurguéia,3136.0,PI,-45.309219,-10.03195
2209807,São Gonçalo do Piauí,3137.0,PI,-42.709537,-5.993934
2209856,São João da Canabrava,3138.0,PI,-41.341483,-6.812029
2209872,São João da Fronteira,3139.0,PI,-41.256921,-3.954975
2209906,São João da Serra,3140.0,PI,-41.892309,-5.510805
2209955,São João da Varjota,3141.0,PI,-41.888912,-6.940817
2209971,São João do Arraial,3142.0,PI,-42.44586,-3.818597
2210003,São João do Piauí,3143.0,PI,-42.255898,-8.354661
2210052,São José do Divino,2088.0,MG,-41.390671,-18.479304
2210052,São José do Divino,3144.0,PI,-41.830793,-3.814114
2210102,São José do Peixe,3145.0,PI,-42.567162,-7.485535
2210201,São José do Piauí,3146.0,PI,-41.47311,-6.87194
2210300,São Julião,3147.0,PI,-40.824638,-7.083906
2210359,São Lourenço do Piauí,3148.0,PI,-42.549552,-9.164633
2210375,São Luis do Piauí,3149.0,PI,-41.317454,-6.819363
2210383,São Miguel da Baixa Grande,3150.0,PI,-42.193423,-5.856457
2210391,São Miguel do Fidalgo,3151.0,PI,-42.367591,-7.597133
2210409,São Miguel do Tapuio,3152.0,PI,-41.316451,-5.497291
2210508,São Pedro do Piauí,3153.0,PI,-42.719211,-5.92078
2210607,São Raimundo Nonato,3154.0,PI,-42.698659,-9.012412
2210623,Sebastião Barros,3155.0,PI,-44.833718,-10.816978
2210631,Sebastião Leal,3156.0,PI,-44.059982,-7.568029
2210656,Sigefredo Pacheco,3157.0,PI,-41.731123,-4.916647
2210706,Simões,3158.0,PI,-40.813731,-7.591095
2210805,Simplício Mendes,3159.0,PI,-41.907533,-7.852944
2210904,Socorro do Piauí,3160.0,PI,-42.492179,-7.86773
2210938,Sussuapara,3161.0,PI,-41.376699,-7.036868
2210953,Tamboril do Piauí,3162.0,PI,-42.921107,-8.409369
2210979,Tanque do Piauí,3163.0,PI,-42.279515,-6.597869
2211001,Teresina,3164.0,PI,-42.803364,-5.091944
2211100,União,3165.0,PI,-42.858285,-4.585709
2211209,Uruçuí,3166.0,PI,-44.557683,-7.239439
2211308,Valença do Piauí,3167.0,PI,-41.737498,-6.403013
2211357,Várzea Branca,3168.0,PI,-42.969221,-9.238003
2211407,Várzea Grande,2397.0,MT,-56.132218,-15.645816
2211407,Várzea Grande,3169.0,PI,-42.247973,-6.548993
2211506,Vera Mendes,3170.0,PI,-41.467336,-7.597481
2211605,Vila Nova do Piauí,3171.0,PI,-40.934514,-7.132718
2211704,Wall Ferraz,3172.0,PI,-41.905037,-7.231511
2300101,Abaiara,620.0,CE,-39.04159,-7.345879
2300150,Acarape,,,,
2300200,Acaraú,622.0,CE,-40.118306,-2.887689
2300309,Acopiara,623.0,CE,-39.448042,-6.089114
2300408,Aiuaba,624.0,CE,-40.11782,-6.571216
2300507,Alcântaras,625.0,CE,-40.547867,-3.585369
2300606,Altaneira,626.0,CE,-39.7356,-6.998371
2300705,Alto Santo,627.0,CE,-38.274318,-5.508941
2300754,Amontada,628.0,CE,-39.828816,-3.360166
2300804,Antonina do Norte,629.0,CE,-39.98697,-6.769193
2300903,Apuiarés,630.0,CE,-39.43593,-3.945057
2301000,Aquiraz,631.0,CE,-38.389563,-3.899293
2301109,Aracati,632.0,CE,-37.767894,-4.558259
2301208,Aracoiaba,633.0,CE,-38.812512,-4.36872
2301257,Ararendá,634.0,CE,-40.83099,-4.745667
2301307,Araripe,635.0,CE,-40.135894,-7.213195
2301406,Aratuba,636.0,CE,-39.047117,-4.412291
2301505,Arneiroz,637.0,CE,-40.165285,-6.316499
2301604,Assaré,638.0,CE,-39.868872,-6.866897
2301703,Aurora,639.0,CE,-38.974221,-6.933487
2301703,Aurora,4388.0,SC,-49.629525,-27.309786
2301802,Baixio,640.0,CE,-38.713376,-6.719447
2301851,Banabuiú,641.0,CE,-38.913175,-5.304544
2301901,Barbalha,642.0,CE,-39.30208,-7.298203
2301950,Barreira,643.0,CE,-38.64291,-4.289206
2302008,Barro,644.0,CE,-38.774133,-7.171879
2302057,Barroquinha,645.0,CE,-41.13585,-3.020514
2302107,Baturité,646.0,CE,-38.881206,-4.325983
2302206,Beberibe,647.0,CE,-38.127075,-4.177415
2302305,Bela Cruz,648.0,CE,-40.167127,-3.049964
2302404,Boa Viagem,649.0,CE,-39.733652,-5.112583
2302503,Brejo Santo,650.0,CE,-38.979911,-7.484686
2302602,Camocim,651.0,CE,-40.854362,-2.900499
2302701,Campos Sales,652.0,CE,-40.368678,-7.067611
2302800,Canindé,653.0,CE,-39.315505,-4.351618
2302909,Capistrano,654.0,CE,-38.904842,-4.455688
2303006,Caridade,655.0,CE,-39.191166,-4.225141
2303105,Cariré,656.0,CE,-40.476028,-3.948584
2303204,Caririaçu,657.0,CE,-39.28276,-7.028076
2303303,Cariús,658.0,CE,-39.491619,-6.524282
2303402,Carnaubal,659.0,CE,-40.941304,-4.159846
2303501,Cascavel,660.0,CE,-38.241178,-4.129666
2303501,Cascavel,3241.0,PR,-53.459005,-24.957301
2303600,Catarina,661.0,CE,-39.873644,-6.122911
2303659,Catunda,662.0,CE,-40.199988,-4.64336
2303709,Caucaia,663.0,CE,-38.661931,-3.727966
2303808,Cedro,664.0,CE,-39.060869,-6.600342
2303808,Cedro,2814.0,PE,-39.236733,-7.71179
2303907,Chaval,665.0,CE,-41.24346,-3.035708
2303931,Choró,666.0,CE,-39.134397,-4.839062
2303956,Chorozinho,667.0,CE,-38.498572,-4.28873
2304004,Coreaú,668.0,CE,-40.658656,-3.541496
2304103,Crateús,669.0,CE,-40.653635,-5.167683
2304202,Crato,670.0,CE,-39.410299,-7.215303
2304236,Croatá,671.0,CE,-40.902228,-4.404805
2304251,Cruz,672.0,CE,-40.175981,-2.918128
2304269,Deputado Irapuan Pinheiro,673.0,CE,-39.25701,-5.914848
2304277,Ererê,674.0,CE,-38.346113,-6.027508
2304285,Eusébio,675.0,CE,-38.455875,-3.892501
2304301,Farias Brito,676.0,CE,-39.565114,-6.92146
2304350,Forquilha,677.0,CE,-40.263405,-3.799447
2304400,Fortaleza,678.0,CE,-38.542298,-3.716638
2304459,Fortim,679.0,CE,-37.798056,-4.451256
2304509,Frecheirinha,680.0,CE,-40.818019,-3.755572
2304608,General Sampaio,681.0,CE,-39.453958,-4.043507
2304657,Graça,682.0,CE,-40.749026,-4.044215
2304707,Granja,683.0,CE,-40.837205,-3.127879
2304806,Granjeiro,684.0,CE,-39.21439,-6.88134
2304905,Groaíras,685.0,CE,-40.385225,-3.917868
2304954,Guaiúba,686.0,CE,-38.640372,-4.040571
2305001,Guaraciaba do Norte,687.0,CE,-40.747588,-4.158136
2305100,Guaramiranga,688.0,CE,-38.932044,-4.262477
2305209,Hidrolândia,689.0,CE,-40.405595,-4.409579
2305209,Hidrolândia,987.0,GO,-49.226535,-16.962587
2305233,Horizonte,690.0,CE,-38.470674,-4.120896
2305266,Ibaretama,691.0,CE,-38.750085,-4.803764
2305308,Ibiapina,692.0,CE,-40.891147,-3.924025
2305332,Ibicuitinga,693.0,CE,-38.636249,-4.969993
2305357,Icapuí,694.0,CE,-37.353062,-4.712063
2305407,Icó,695.0,CE,-38.855352,-6.396271
2305506,Iguatu,696.0,CE,-39.28915,-6.362806
2305506,Iguatu,3317.0,PR,-53.082724,-24.715277
2305605,Independência,697.0,CE,-40.308526,-5.387889
2305605,Independência,4089.0,RS,-54.18864,-27.835411
2305654,Ipaporanga,698.0,CE,-40.753705,-4.897636
2305704,Ipaumirim,699.0,CE,-38.717856,-6.782648
2305803,Ipu,700.0,CE,-40.705877,-4.317484
2305902,Ipueiras,701.0,CE,-40.711764,-4.538021
2305902,Ipueiras,5436.0,TO,-48.460024,-11.2329
2306009,Iracema,702.0,CE,-38.291943,-5.8124
2306009,Iracema,3889.0,RR,-61.041546,2.183046
2306108,Irauçuba,703.0,CE,-39.784332,-3.747367
2306207,Itaiçaba,704.0,CE,-37.832957,-4.671461
2306256,Itaitinga,705.0,CE,-38.529763,-3.965768
2306306,Itapagé,,,,
2306405,Itapipoca,707.0,CE,-39.583571,-3.499329
2306504,Itapiúna,708.0,CE,-38.928113,-4.555165
2306553,Itarema,709.0,CE,-39.916654,-2.924797
2306603,Itatira,710.0,CE,-39.620155,-4.526076
2306702,Jaguaretama,711.0,CE,-38.763861,-5.605096
2306801,Jaguaribara,712.0,CE,-38.535878,-5.677651
2306900,Jaguaribe,713.0,CE,-38.622653,-5.902134
2307007,Jaguaruana,714.0,CE,-37.780997,-4.831508
2307106,Jardim,715.0,CE,-39.28262,-7.575989
2307106,Jardim,2240.0,MS,-56.148902,-21.479941
2307205,Jati,716.0,CE,-39.002871,-7.6797
2307254,Jijoca de Jericoacoara,717.0,CE,-40.512742,-2.793312
2307304,Juazeiro do Norte,718.0,CE,-39.307593,-7.196207
2307403,Jucás,719.0,CE,-39.518679,-6.515229
2307502,Lavras da Mangabeira,720.0,CE,-38.970619,-6.744801
2307601,Limoeiro do Norte,721.0,CE,-38.084693,-5.143921
2307635,Madalena,722.0,CE,-39.572542,-4.846012
2307650,Maracanaú,723.0,CE,-38.625901,-3.86699
2307700,Maranguape,724.0,CE,-38.682911,-3.891432
2307809,Marco,725.0,CE,-40.15824,-3.128501
2307908,Martinópole,726.0,CE,-40.689581,-3.225198
2308005,Massapê,727.0,CE,-40.342271,-3.523645
2308104,Mauriti,728.0,CE,-38.770786,-7.385974
2308203,Meruoca,729.0,CE,-40.453106,-3.539741
2308302,Milagres,459.0,BA,-39.861092,-12.864635
2308302,Milagres,730.0,CE,-38.937829,-7.297492
2308351,Milhã,731.0,CE,-39.187483,-5.672525
2308377,Miraíma,732.0,CE,-39.966267,-3.568674
2308401,Missão Velha,733.0,CE,-39.143046,-7.235219
2308500,Mombaça,734.0,CE,-39.630009,-5.738442
2308609,Monsenhor Tabosa,735.0,CE,-40.064637,-4.791022
2308708,Morada Nova,736.0,CE,-38.370158,-5.09736
2308807,Moraújo,737.0,CE,-40.677577,-3.463112
2308906,Morrinhos,738.0,CE,-40.123275,-3.234258
2308906,Morrinhos,1030.0,GO,-49.105908,-17.733369
2309003,Mucambo,739.0,CE,-40.745222,-3.902714
2309102,Mulungu,740.0,CE,-38.995133,-4.302938
2309102,Mulungu,2667.0,PB,-35.460023,-7.025245
2309201,Nova Olinda,741.0,CE,-39.67128,-7.084145
2309201,Nova Olinda,2671.0,PB,-38.038229,-7.472325
2309201,Nova Olinda,5459.0,TO,-48.425232,-7.631712
2309300,Nova Russas,742.0,CE,-40.562118,-4.705807
2309409,Novo Oriente,743.0,CE,-40.771296,-5.525519
2309458,Ocara,744.0,CE,-38.593256,-4.48523
2309508,Orós,745.0,CE,-38.905264,-6.251816
2309607,Pacajus,746.0,CE,-38.464988,-4.171073
2309706,Pacatuba,747.0,CE,-38.618296,-3.978396
2309706,Pacatuba,4703.0,SE,-36.653078,-10.453811
2309805,Pacoti,748.0,CE,-38.922011,-4.224918
2309904,Pacujá,749.0,CE,-40.698885,-3.983272
2310001,Palhano,750.0,CE,-37.965549,-4.736722
2310100,Palmácia,751.0,CE,-38.844601,-4.138308
2310209,Paracuru,752.0,CE,-39.030028,-3.41436
2310258,Paraipaba,753.0,CE,-39.147868,-3.437987
2310308,Parambu,754.0,CE,-40.690524,-6.207681
2310407,Paramoti,755.0,CE,-39.241691,-4.088146
2310506,Pedra Branca,756.0,CE,-39.707771,-5.453411
2310506,Pedra Branca,2680.0,PB,-38.068882,-7.421694
2310605,Penaforte,757.0,CE,-39.070724,-7.82163
2310704,Pentecoste,758.0,CE,-39.269159,-3.792736
2310803,Pereiro,759.0,CE,-38.462397,-6.035761
2310852,Pindoretama,760.0,CE,-38.306118,-4.015839
2310902,Piquet Carneiro,761.0,CE,-39.417017,-5.800251
2310951,Pires Ferreira,762.0,CE,-40.64418,-4.239218
2311009,Poranga,763.0,CE,-40.920533,-4.746717
2311108,Porteiras,764.0,CE,-39.114028,-7.522647
2311207,Potengi,765.0,CE,-40.023292,-7.09154
2311231,Potiretama,766.0,CE,-38.157804,-5.71287
2311264,Quiterianópolis,767.0,CE,-40.700217,-5.842496
2311306,Quixadá,768.0,CE,-39.015474,-4.966301
2311355,Quixelô,769.0,CE,-39.201067,-6.246369
2311405,Quixeramobim,770.0,CE,-39.288947,-5.190672
2311504,Quixeré,771.0,CE,-37.9802,-5.071482
2311603,Redenção,772.0,CE,-38.727719,-4.215873
2311603,Redenção,2500.0,PA,-50.031687,-8.025294
2311702,Reriutaba,773.0,CE,-40.575915,-4.141911
2311801,Russas,774.0,CE,-37.972086,-4.926727
2311900,Saboeiro,775.0,CE,-39.90173,-6.534595
2311959,Salitre,776.0,CE,-40.450013,-7.28398
2312007,Santana do Acaraú,777.0,CE,-40.211827,-3.461435
2312106,Santana do Cariri,778.0,CE,-39.730161,-7.176125
2312205,Santa Quitéria,779.0,CE,-40.152305,-4.326081
2312304,São Benedito,780.0,CE,-40.859572,-4.047131
2312403,São Gonçalo do Amarante,781.0,CE,-38.972646,-3.605149
2312403,São Gonçalo do Amarante,3792.0,RN,-35.325729,-5.790682
2312502,São João do Jaguaribe,782.0,CE,-38.269366,-5.275164
2312601,São Luís do Curu,783.0,CE,-39.239123,-3.66976
2312700,Senador Pompeu,784.0,CE,-39.370369,-5.582444
2312809,Senador Sá,785.0,CE,-40.4662,-3.35305
2312908,Sobral,786.0,CE,-40.34821,-3.689133
2313005,Solonópole,787.0,CE,-39.01072,-5.718936
2313104,Tabuleiro do Norte,788.0,CE,-38.128175,-5.243527
2313203,Tamboril,789.0,CE,-40.319593,-4.831364
2313252,Tarrafas,790.0,CE,-39.753048,-6.678376
2313302,Tauá,791.0,CE,-40.296802,-5.985853
2313351,Tejuçuoca,792.0,CE,-39.579866,-3.988307
2313401,Tianguá,793.0,CE,-40.992286,-3.729645
2313500,Trairi,794.0,CE,-39.268126,-3.269323
2313559,Tururu,795.0,CE,-39.429656,-3.584132
2313609,Ubajara,796.0,CE,-40.920437,-3.854479
2313708,Umari,797.0,CE,-38.700798,-6.638926
2313757,Umirim,798.0,CE,-39.346513,-3.676541
2313807,Uruburetama,799.0,CE,-39.510677,-3.623165
2313906,Uruoca,800.0,CE,-40.56276,-3.308194
2313955,Varjota,801.0,CE,-40.474083,-4.193871
2314003,Várzea Alegre,802.0,CE,-39.294155,-6.782642
2314102,Viçosa do Ceará,803.0,CE,-41.091554,-3.566703
2400109,Acari,3664.0,RN,-36.634719,-6.428201
2400208,Açu,3665.0,RN,-36.907538,-5.565024
2400307,Afonso Bezerra,3666.0,RN,-36.507469,-5.492294
2400406,Água Nova,3667.0,RN,-38.29414,-6.203514
2400505,Alexandria,3668.0,RN,-38.01423,-6.405335
2400604,Almino Afonso,3669.0,RN,-37.763574,-6.147496
2400703,Alto do Rodrigues,3670.0,RN,-36.749971,-5.281857
2400802,Angicos,3671.0,RN,-36.609434,-5.65792
2400901,Antônio Martins,3672.0,RN,-37.883363,-6.213666
2401008,Apodi,3673.0,RN,-37.794593,-5.653489
2401107,Areia Branca,3674.0,RN,-37.125226,-4.952537
2401107,Areia Branca,4660.0,SE,-37.325063,-10.758005
2401206,Arês,3675.0,RN,-35.160823,-6.18831
2401305,Augusto Severo,,,,
2401404,Baía Formosa,3677.0,RN,-35.00327,-6.371607
2401453,Baraúna,2564.0,PB,-36.260065,-6.634845
2401453,Baraúna,3678.0,RN,-37.612911,-5.06977
2401503,Barcelona,3679.0,RN,-35.924653,-5.94284
2401602,Bento Fernandes,3680.0,RN,-35.812996,-5.699057
2401651,Bodó,3681.0,RN,-36.416706,-5.980269
2401701,Bom Jesus,2574.0,PB,-38.645344,-6.81601
2401701,Bom Jesus,2981.0,PI,-44.358951,-9.071239
2401701,Bom Jesus,3682.0,RN,-35.579196,-5.986479
2401701,Bom Jesus,3940.0,RS,-50.429453,-28.669703
2401701,Bom Jesus,4404.0,SC,-52.3919,-26.732595
2401800,Brejinho,2793.0,PE,-37.286493,-7.34694
2401800,Brejinho,3683.0,RN,-35.359113,-6.185662
2401859,Caiçara do Norte,3684.0,RN,-36.07169,-5.070913
2401909,Caiçara do Rio do Vento,3685.0,RN,-35.993772,-5.765412
2402006,Caicó,3686.0,RN,-37.106723,-6.454415
2402105,Campo Redondo,3687.0,RN,-36.188768,-6.23829
2402204,Canguaretama,3688.0,RN,-35.128059,-6.371927
2402303,Caraúbas,2596.0,PB,-36.492046,-7.720487
2402303,Caraúbas,3689.0,RN,-37.558629,-5.783867
2402402,Carnaúba dos Dantas,3690.0,RN,-36.586818,-6.550153
2402501,Carnaubais,3691.0,RN,-36.833489,-5.341808
2402600,Ceará-Mirim,3692.0,RN,-35.419741,-5.640061
2402709,Cerro Corá,3693.0,RN,-36.350278,-6.03503
2402808,Coronel Ezequiel,3694.0,RN,-36.222346,-6.374801
2402907,Coronel João Pessoa,3695.0,RN,-38.44415,-6.249736
2403004,Cruzeta,3696.0,RN,-36.778239,-6.408939
2403103,Currais Novos,3697.0,RN,-36.514648,-6.254843
2403202,Doutor Severiano,3698.0,RN,-38.379407,-6.080819
2403251,Parnamirim,2886.0,PE,-39.579547,-8.087292
2403251,Parnamirim,3759.0,RN,-35.271,-5.911156
2403301,Encanto,3699.0,RN,-38.30328,-6.106912
2403400,Equador,3700.0,RN,-36.716957,-6.938355
2403509,Espírito Santo,3701.0,RN,-35.305217,-6.335634
2403608,Extremoz,3702.0,RN,-35.30484,-5.701433
2403707,Felipe Guerra,3703.0,RN,-37.687518,-5.592737
2403756,Fernando Pedroza,3704.0,RN,-36.528193,-5.690955
2403806,Florânia,3705.0,RN,-36.822624,-6.122645
2403905,Francisco Dantas,3706.0,RN,-38.121209,-6.072339
2404002,Frutuoso Gomes,3707.0,RN,-37.837493,-6.156686
2404101,Galinhos,3708.0,RN,-36.275449,-5.090901
2404200,Goianinha,3709.0,RN,-35.194289,-6.264864
2404309,Governador Dix-Sept Rosado,3710.0,RN,-37.518265,-5.448867
2404408,Grossos,3711.0,RN,-37.16208,-4.98068
2404507,Guamaré,3712.0,RN,-36.322172,-5.106194
2404606,Ielmo Marinho,3713.0,RN,-35.549952,-5.824469
2404705,Ipanguaçu,3714.0,RN,-36.850137,-5.489844
2404804,Ipueira,3715.0,RN,-37.204541,-6.805962
2404853,Itajá,999.0,GO,-51.549514,-19.067338
2404853,Itajá,3716.0,RN,-36.871176,-5.638936
2404903,Itaú,3717.0,RN,-37.991249,-5.836301
2405009,Jaçanã,3718.0,RN,-36.203081,-6.418559
2405108,Jandaíra,414.0,BA,-37.785274,-11.561614
2405108,Jandaíra,3719.0,RN,-36.127836,-5.352106
2405207,Janduís,3720.0,RN,-37.40482,-6.014739
2405306,Januário Cicco,,,,
2405405,Japi,3722.0,RN,-35.934551,-6.46544
2405504,Jardim de Angicos,3723.0,RN,-35.971287,-5.649993
2405603,Jardim de Piranhas,3724.0,RN,-37.349643,-6.376649
2405702,Jardim do Seridó,3725.0,RN,-36.773574,-6.580474
2405801,João Câmara,3726.0,RN,-35.812186,-5.54094
2405900,João Dias,3727.0,RN,-37.788546,-6.272154
2406007,José da Penha,3728.0,RN,-38.282277,-6.310947
2406106,Jucurutu,3729.0,RN,-37.00902,-6.030599
2406155,Jundiá,66.0,AL,-35.566925,-8.932968
2406155,Jundiá,5624.0,RN,-35.349469,-6.268657
2406205,Lagoa d'Anta,,,,
2406304,Lagoa de Pedras,3731.0,RN,-35.429888,-6.150815
2406403,Lagoa de Velhos,3732.0,RN,-35.872928,-6.011897
2406502,Lagoa Nova,3733.0,RN,-36.47027,-6.093386
2406601,Lagoa Salgada,3734.0,RN,-35.472394,-6.122954
2406700,Lajes,3735.0,RN,-36.24704,-5.693222
2406809,Lajes Pintadas,3736.0,RN,-36.117088,-6.149429
2406908,Lucrécia,3737.0,RN,-37.813365,-6.105248
2407005,Luís Gomes,3738.0,RN,-38.389865,-6.405883
2407104,Macaíba,3739.0,RN,-35.355184,-5.852295
2407203,Macau,3740.0,RN,-36.631842,-5.107947
2407252,Major Sales,3741.0,RN,-38.324019,-6.399485
2407302,Marcelino Vieira,3742.0,RN,-38.164162,-6.284595
2407401,Martins,3743.0,RN,-37.907973,-6.08279
2407500,Maxaranguape,3744.0,RN,-35.263082,-5.521809
2407609,Messias Targino,3745.0,RN,-37.515817,-6.071935
2407708,Montanhas,3746.0,RN,-35.284158,-6.485217
2407807,Monte Alegre,2474.0,PA,-54.072386,-1.997679
2407807,Monte Alegre,3747.0,RN,-35.325337,-6.07063
2407906,Monte das Gameleiras,3748.0,RN,-35.783133,-6.43698
2408003,Mossoró,3749.0,RN,-37.347446,-5.183737
2408102,Natal,3750.0,RN,-35.198604,-5.793567
2408201,Nísia Floresta,3751.0,RN,-35.19913,-6.093288
2408300,Nova Cruz,3752.0,RN,-35.428615,-6.475115
2408409,Olho-d'Água do Borges,,,,
2408508,Ouro Branco,88.0,AL,-37.355639,-9.158842
2408508,Ouro Branco,1881.0,MG,-43.696217,-20.52629
2408508,Ouro Branco,3754.0,RN,-36.94279,-6.6958
2408607,Paraná,3755.0,RN,-38.305701,-6.475645
2408706,Paraú,,,,
2408805,Parazinho,3757.0,RN,-35.839787,-5.222758
2408904,Parelhas,3758.0,RN,-36.656626,-6.684908
2408953,Rio do Fogo,3780.0,RN,-35.379437,-5.276498
2409100,Passa e Fica,3760.0,RN,-35.644179,-6.430183
2409209,Passagem,2677.0,PB,-37.043302,-7.134667
2409209,Passagem,3761.0,RN,-35.370037,-6.272684
2409308,Patu,3762.0,RN,-37.635638,-6.106559
2409332,Santa Maria,5722.0,DF,-47.9872688,-16.0036155
2409332,Santa Maria,3784.0,RN,-35.691409,-5.838022
2409332,Santa Maria,4236.0,RS,-53.814946,-29.686817
2409407,Pau dos Ferros,3763.0,RN,-38.207714,-6.104976
2409506,Pedra Grande,3764.0,RN,-35.876018,-5.149882
2409605,Pedra Preta,2356.0,MT,-54.47218,-16.624505
2409605,Pedra Preta,3765.0,RN,-36.108367,-5.573524
2409704,Pedro Avelino,3766.0,RN,-36.386653,-5.516099
2409803,Pedro Velho,3767.0,RN,-35.219539,-6.4356
2409902,Pendências,3768.0,RN,-36.70955,-5.2564
2410009,Pilões,2687.0,PB,-35.612974,-6.868269
2410009,Pilões,3769.0,RN,-38.04605,-6.263635
2410108,Poço Branco,3770.0,RN,-35.663535,-5.622326
2410207,Portalegre,3771.0,RN,-37.986524,-6.02064
2410256,Porto do Mangue,3772.0,RN,-36.78871,-5.054413
2410306,Presidente Juscelino,1277.0,MA,-44.07148,-2.918724
2410306,Presidente Juscelino,1965.0,MG,-44.060032,-18.640106
2410405,Pureza,3774.0,RN,-35.555374,-5.463933
2410504,Rafael Fernandes,3775.0,RN,-38.221116,-6.189871
2410603,Rafael Godeiro,3776.0,RN,-37.715961,-6.072441
2410702,Riacho da Cruz,3777.0,RN,-37.949047,-5.926543
2410801,Riacho de Santana,527.0,BA,-42.939675,-13.605941
2410801,Riacho de Santana,3778.0,RN,-38.311576,-6.251392
2410900,Riachuelo,3779.0,RN,-35.821515,-5.821555
2410900,Riachuelo,4713.0,SE,-37.196551,-10.735008
2411007,Rodolfo Fernandes,3781.0,RN,-38.057886,-5.783929
2411056,Tibau,3818.0,RN,-37.255358,-4.837292
2411106,Ruy Barbosa,536.0,BA,-40.493101,-12.281612
2411106,Ruy Barbosa,3782.0,RN,-35.933039,-5.887454
2411205,Santa Cruz,2710.0,PB,-38.061748,-6.5237
2411205,Santa Cruz,2908.0,PE,-40.343368,-8.241534
2411205,Santa Cruz,3783.0,RN,-36.019297,-6.224752
2411403,Santana do Matos,3785.0,RN,-36.657763,-5.946055
2411429,Santana do Seridó,3786.0,RN,-36.731201,-6.76643
2411502,Santo Antônio,3787.0,RN,-35.473868,-6.311951
2411601,São Bento do Norte,3788.0,RN,-35.958705,-5.092594
2411700,São Bento do Trairí,3789.0,RN,-36.086332,-6.337979
2411809,São Fernando,3790.0,RN,-37.186362,-6.379745
2411908,São Francisco do Oeste,3791.0,RN,-38.151944,-5.974722
2412005,São Gonçalo do Amarante,781.0,CE,-38.972646,-3.605149
2412005,São Gonçalo do Amarante,3792.0,RN,-35.325729,-5.790682
2412104,São João do Sabugi,3793.0,RN,-37.202676,-6.713867
2412203,São José de Mipibu,3794.0,RN,-35.241692,-6.077303
2412302,São José do Campestre,3795.0,RN,-35.706681,-6.310871
2412401,São José do Seridó,3796.0,RN,-36.874644,-6.44002
2412500,São Miguel,3797.0,RN,-38.494696,-6.202833
2412559,São Miguel do Gostoso,3798.0,RN,-35.641429,-5.125882
2412609,São Paulo do Potengi,3799.0,RN,-35.764229,-5.899401
2412708,São Pedro,3800.0,RN,-35.631687,-5.905588
2412708,São Pedro,5297.0,SP,-47.909579,-22.548256
2412807,São Rafael,3801.0,RN,-36.87777,-5.797907
2412906,São Tomé,3531.0,PR,-52.590125,-23.534946
2412906,São Tomé,3802.0,RN,-36.079798,-5.964037
2413003,São Vicente,3803.0,RN,-36.682696,-6.218931
2413003,São Vicente,5303.0,SP,-46.388333,-23.957353
2413102,Senador Elói de Souza,3804.0,RN,-35.697813,-6.033343
2413201,Senador Georgino Avelino,3805.0,RN,-35.129912,-6.157598
2413300,Serra de São Bento,3806.0,RN,-35.703258,-6.417616
2413359,Serra do Mel,3807.0,RN,-37.024219,-5.177245
2413409,Serra Negra do Norte,3808.0,RN,-37.399601,-6.660306
2413508,Serrinha,577.0,BA,-39.009976,-11.658407
2413508,Serrinha,3809.0,RN,-35.500038,-6.281811
2413557,Serrinha dos Pintos,3810.0,RN,-37.954799,-6.110873
2413607,Severiano Melo,3811.0,RN,-37.95698,-5.776659
2413706,Sítio Novo,1325.0,MA,-46.703329,-5.876006
2413706,Sítio Novo,3812.0,RN,-35.908974,-6.111322
2413805,Taboleiro Grande,3813.0,RN,-38.036693,-5.91948
2413904,Taipu,3814.0,RN,-35.5918,-5.630576
2414001,Tangará,3815.0,RN,-35.798888,-6.19649
2414001,Tangará,4627.0,SC,-51.247253,-27.099576
2414100,Tenente Ananias,3816.0,RN,-38.181981,-6.458229
2414159,Tenente Laurentino Cruz,3817.0,RN,-36.713515,-6.137797
2414209,Tibau do Sul,3819.0,RN,-35.08662,-6.19176
2414308,Timbaúba dos Batistas,3820.0,RN,-37.274519,-6.457678
2414407,Touros,3821.0,RN,-35.462102,-5.201821
2414456,Triunfo Potiguar,3822.0,RN,-37.178606,-5.85408
2414506,Umarizal,3823.0,RN,-37.818031,-5.982379
2414605,Upanema,3824.0,RN,-37.263485,-5.637611
2414704,Várzea,2763.0,PB,-36.991287,-6.761887
2414704,Várzea,3825.0,RN,-35.373182,-6.346412
2414753,Venha-Ver,3826.0,RN,-38.487378,-6.314789
2414803,Vera Cruz,613.0,BA,-38.615295,-12.956845
2414803,Vera Cruz,3827.0,RN,-35.427979,-6.043989
2414803,Vera Cruz,4348.0,RS,-52.515176,-29.718435
2414803,Vera Cruz,5369.0,SP,-49.820735,-22.218308
2414902,Viçosa,125.0,AL,-36.243107,-9.367631
2414902,Viçosa,2188.0,MG,-42.87417,-20.755916
2414902,Viçosa,3828.0,RN,-37.946236,-5.982529
2415008,Vila Flor,3829.0,RN,-35.067023,-6.312868
2500106,Água Branca,24.0,AL,-37.937988,-9.261996
2500106,Água Branca,2544.0,PB,-37.635703,-7.511441
2500106,Água Branca,2954.0,PI,-42.636961,-5.888564
2500205,Aguiar,2545.0,PB,-38.168059,-7.091802
2500304,Alagoa Grande,2546.0,PB,-35.620609,-7.039432
2500403,Alagoa Nova,2547.0,PB,-35.759065,-7.053772
2500502,Alagoinha,2548.0,PB,-35.533196,-6.946569
2500502,Alagoinha,2773.0,PE,-36.778767,-8.466504
2500536,Alcantil,2549.0,PB,-36.051083,-7.736681
2500577,Algodão de Jandaíra,2550.0,PB,-36.012861,-6.892919
2500601,Alhandra,2551.0,PB,-34.905662,-7.42977
2500700,São João do Rio do Peixe,2726.0,PB,-38.446829,-6.721951
2500734,Amparo,2552.0,PB,-37.062838,-7.555022
2500734,Amparo,4753.0,SP,-46.772022,-22.70879
2500775,Aparecida,2553.0,PB,-38.080259,-6.784657
2500775,Aparecida,4759.0,SP,-45.232496,-22.849509
2500809,Araçagi,2554.0,PB,-35.373667,-6.843739
2500908,Arara,2555.0,PB,-35.75521,-6.828126
2501005,Araruna,2556.0,PB,-35.7498,-6.548484
2501005,Araruna,3193.0,PR,-52.502101,-23.9315
2501104,Areia,2557.0,PB,-35.697731,-6.963965
2501153,Areia de Baraúnas,2558.0,PB,-36.940363,-7.117021
2501203,Areial,2559.0,PB,-35.931324,-7.047894
2501302,Aroeiras,2560.0,PB,-35.706549,-7.544731
2501351,Assunção,2561.0,PB,-36.72504,-7.07231
2501401,Baía da Traição,2562.0,PB,-34.93806,-6.692086
2501500,Bananeiras,2563.0,PB,-35.624573,-6.747749
2501534,Baraúna,2564.0,PB,-36.260065,-6.634845
2501534,Baraúna,3678.0,RN,-37.612911,-5.06977
2501575,Barra de Santana,2565.0,PB,-35.991325,-7.518085
2501609,Barra de Santa Rosa,2566.0,PB,-36.067069,-6.718164
2501708,Barra de São Miguel,29.0,AL,-35.905667,-9.83842
2501708,Barra de São Miguel,2567.0,PB,-36.320915,-7.746031
2501807,Bayeux,2568.0,PB,-34.929336,-7.123797
2501906,Belém,31.0,AL,-36.490399,-9.570472
2501906,Belém,2419.0,PA,-48.489756,-1.455396
2501906,Belém,2569.0,PB,-35.51658,-6.742614
2502003,Belém do Brejo do Cruz,2570.0,PB,-37.534763,-6.185146
2502052,Bernardino Batista,2571.0,PB,-38.552069,-6.445718
2502102,Boa Ventura,2572.0,PB,-38.211347,-7.409822
2502151,Boa Vista,2573.0,PB,-36.235706,-7.263653
2502151,Boa Vista,3884.0,RR,-60.675328,2.823842
2502201,Bom Jesus,2574.0,PB,-38.645344,-6.81601
2502201,Bom Jesus,2981.0,PI,-44.358951,-9.071239
2502201,Bom Jesus,3682.0,RN,-35.579196,-5.986479
2502201,Bom Jesus,3940.0,RS,-50.429453,-28.669703
2502201,Bom Jesus,4404.0,SC,-52.3919,-26.732595
2502300,Bom Sucesso,1428.0,MG,-44.753745,-21.032875
2502300,Bom Sucesso,2575.0,PB,-37.923409,-6.441761
2502300,Bom Sucesso,3214.0,PR,-51.767056,-23.706313
2502409,Bonito de Santa Fé,2576.0,PB,-38.513335,-7.313407
2502508,Boqueirão,2577.0,PB,-36.130887,-7.487004
2502607,Igaracy,2629.0,PB,-38.147761,-7.17184
2502706,Borborema,2578.0,PB,-35.618728,-6.801995
2502706,Borborema,4815.0,SP,-49.074089,-21.621368
2502805,Brejo do Cruz,2579.0,PB,-37.49434,-6.341853
2502904,Brejo dos Santos,2580.0,PB,-37.825311,-6.370652
2503001,Caaporã,2581.0,PB,-34.905514,-7.513508
2503100,Cabaceiras,2582.0,PB,-36.286981,-7.488991
2503209,Cabedelo,2583.0,PB,-34.828409,-6.987314
2503308,Cachoeira dos Índios,2584.0,PB,-38.67598,-6.913531
2503407,Cacimba de Areia,2585.0,PB,-37.156288,-7.12128
2503506,Cacimba de Dentro,2586.0,PB,-35.777835,-6.638596
2503555,Cacimbas,2587.0,PB,-37.060429,-7.207212
2503605,Caiçara,2588.0,PB,-35.458127,-6.621151
2503605,Caiçara,3955.0,RS,-53.42567,-27.279121
2503704,Cajazeiras,2589.0,PB,-38.557722,-6.880044
2503753,Cajazeirinhas,2590.0,PB,-37.800929,-6.960164
2503803,Caldas Brandão,2591.0,PB,-35.327159,-7.1025
2503902,Camalaú,2592.0,PB,-36.824191,-7.885031
2504009,Campina Grande,2593.0,PB,-35.873144,-7.221958
2504033,Capim,2595.0,PB,-35.16725,-6.916244
2504074,Caraúbas,2596.0,PB,-36.492046,-7.720487
2504074,Caraúbas,3689.0,RN,-37.558629,-5.783867
2504108,Carrapateira,2597.0,PB,-38.339885,-7.034141
2504157,Casserengue,2598.0,PB,-35.817875,-6.779538
2504207,Catingueira,2599.0,PB,-37.60638,-7.120081
2504306,Catolé do Rocha,2600.0,PB,-37.746967,-6.340625
2504355,Caturité,2601.0,PB,-36.030589,-7.416586
2504405,Conceição,2602.0,PB,-38.501437,-7.551063
2504504,Condado,2603.0,PB,-37.606036,-6.898312
2504504,Condado,2817.0,PE,-35.09994,-7.587868
2504603,Conde,305.0,BA,-37.613094,-11.817937
2504603,Conde,2604.0,PB,-34.899876,-7.257464
2504702,Congo,2605.0,PB,-36.658059,-7.790782
2504801,Coremas,2606.0,PB,-37.934638,-7.007124
2504850,Coxixola,2607.0,PB,-36.606441,-7.623653
2504900,Cruz do Espírito Santo,2608.0,PB,-35.085721,-7.139022
2505006,Cubati,2609.0,PB,-36.361887,-6.866858
2505105,Cuité,2610.0,PB,-36.151456,-6.476466
2505204,Cuitegi,2612.0,PB,-35.521529,-6.890577
2505238,Cuité de Mamanguape,2611.0,PB,-35.250219,-6.912922
2505279,Curral de Cima,2613.0,PB,-35.263934,-6.723248
2505303,Curral Velho,2614.0,PB,-38.196175,-7.530751
2505352,Damião,2615.0,PB,-35.910136,-6.631607
2505402,Desterro,2616.0,PB,-37.092525,-7.286996
2505501,Vista Serrana,2765.0,PB,-37.570358,-6.730298
2505600,Diamante,2617.0,PB,-38.26151,-7.41738
2505709,Dona Inês,2618.0,PB,-35.620479,-6.615656
2505808,Duas Estradas,2619.0,PB,-35.417976,-6.684988
2505907,Emas,2620.0,PB,-37.716276,-7.099635
2506004,Esperança,2621.0,PB,-35.859719,-7.022783
2506103,Fagundes,2622.0,PB,-35.793128,-7.344537
2506202,Frei Martinho,2623.0,PB,-36.452628,-6.39759
2506251,Gado Bravo,2624.0,PB,-35.789887,-7.582786
2506301,Guarabira,2625.0,PB,-35.484986,-6.850636
2506400,Gurinhém,2626.0,PB,-35.422198,-7.1233
2506509,Gurjão,2627.0,PB,-36.492288,-7.248332
2506608,Ibiara,2628.0,PB,-38.405918,-7.479567
2506707,Imaculada,2630.0,PB,-37.507918,-7.388904
2506806,Ingá,2631.0,PB,-35.605,-7.281444
2506905,Itabaiana,2632.0,PB,-35.331723,-7.331674
2506905,Itabaiana,4682.0,SE,-37.427287,-10.682555
2507002,Itaporanga,2633.0,PB,-38.150442,-7.302021
2507002,Itaporanga,4995.0,SP,-49.481854,-23.704273
2507101,Itapororoca,2634.0,PB,-35.240635,-6.823738
2507200,Itatuba,2635.0,PB,-35.637994,-7.381153
2507309,Jacaraú,2636.0,PB,-35.289032,-6.614526
2507408,Jericó,2637.0,PB,-37.803641,-6.545769
2507507,João Pessoa,2638.0,PB,-34.864121,-7.11509
2507606,Juarez Távora,2639.0,PB,-35.568623,-7.171302
2507705,Juazeirinho,2640.0,PB,-36.579316,-7.060924
2507804,Junco do Seridó,2641.0,PB,-36.716595,-6.992694
2507903,Juripiranga,2642.0,PB,-35.232143,-7.361759
2508000,Juru,2643.0,PB,-37.815021,-7.529826
2508109,Lagoa,2644.0,PB,-37.912745,-6.585723
2508208,Lagoa de Dentro,2645.0,PB,-35.370641,-6.67213
2508307,Lagoa Seca,2646.0,PB,-35.849111,-7.155349
2508406,Lastro,2647.0,PB,-38.174199,-6.506032
2508505,Livramento,2648.0,PB,-36.949116,-7.371127
2508554,Logradouro,2649.0,PB,-35.438351,-6.611912
2508604,Lucena,2650.0,PB,-34.874769,-6.902578
2508703,Mãe d'Água,,,,
2508802,Malta,2652.0,PB,-37.522067,-6.89719
2508901,Mamanguape,2653.0,PB,-35.121316,-6.833698
2509008,Manaíra,2654.0,PB,-38.152292,-7.703313
2509057,Marcação,2655.0,PB,-35.008661,-6.76535
2509107,Mari,2656.0,PB,-35.318044,-7.059424
2509156,Marizópolis,2657.0,PB,-38.35283,-6.827479
2509206,Massaranduba,2658.0,PB,-35.784768,-7.18995
2509206,Massaranduba,4521.0,SC,-49.005351,-26.610868
2509305,Mataraca,2659.0,PB,-35.05308,-6.59673
2509339,Matinhas,2660.0,PB,-35.766922,-7.124856
2509370,Mato Grosso,2661.0,PB,-37.727857,-6.540181
2509396,Maturéia,2662.0,PB,-37.350992,-7.261879
2509404,Mogeiro,2663.0,PB,-35.483182,-7.285169
2509503,Montadas,2664.0,PB,-35.959198,-7.088482
2509602,Monte Horebe,2665.0,PB,-38.583762,-7.204024
2509701,Monteiro,2666.0,PB,-37.118419,-7.883626
2509800,Mulungu,740.0,CE,-38.995133,-4.302938
2509800,Mulungu,2667.0,PB,-35.460023,-7.025245
2509909,Natuba,2668.0,PB,-35.558629,-7.635142
2510006,Nazarezinho,2669.0,PB,-38.322032,-6.911401
2510105,Nova Floresta,2670.0,PB,-36.205722,-6.450562
2510204,Nova Olinda,741.0,CE,-39.67128,-7.084145
2510204,Nova Olinda,2671.0,PB,-38.038229,-7.472325
2510204,Nova Olinda,5459.0,TO,-48.425232,-7.631712
2510303,Nova Palmeira,2672.0,PB,-36.422023,-6.671221
2510402,Olho d'Água,,,,
2510501,Olivedos,2674.0,PB,-36.241033,-6.984343
2510600,Ouro Velho,2675.0,PB,-37.151857,-7.616037
2510659,Parari,2676.0,PB,-36.652248,-7.309751
2510709,Passagem,2677.0,PB,-37.043302,-7.134667
2510709,Passagem,3761.0,RN,-35.370037,-6.272684
2510808,Patos,2678.0,PB,-37.274702,-7.017427
2510907,Paulista,2679.0,PB,-37.618548,-6.591381
2510907,Paulista,2889.0,PE,-34.868407,-7.934007
2511004,Pedra Branca,756.0,CE,-39.707771,-5.453411
2511004,Pedra Branca,2680.0,PB,-38.068882,-7.421694
2511103,Pedra Lavrada,2681.0,PB,-36.475813,-6.749974
2511202,Pedras de Fogo,2682.0,PB,-35.106464,-7.391069
2511301,Piancó,2684.0,PB,-37.92888,-7.192823
2511400,Picuí,2685.0,PB,-36.349704,-6.508451
2511509,Pilar,98.0,AL,-35.954294,-9.601348
2511509,Pilar,2686.0,PB,-35.252326,-7.264034
2511608,Pilões,2687.0,PB,-35.612974,-6.868269
2511608,Pilões,3769.0,RN,-38.04605,-6.263635
2511707,Pilõezinhos,2688.0,PB,-35.531036,-6.842773
2511806,Pirpirituba,2689.0,PB,-35.490558,-6.779222
2511905,Pitimbu,2690.0,PB,-34.815133,-7.466398
2512002,Pocinhos,2691.0,PB,-36.066779,-7.06658
2512036,Poço Dantas,2692.0,PB,-38.490908,-6.398763
2512077,Poço de José de Moura,2693.0,PB,-38.511054,-6.564011
2512101,Pombal,2694.0,PB,-37.80027,-6.766059
2512200,Prata,1961.0,MG,-48.927625,-19.308607
2512200,Prata,2695.0,PB,-37.080088,-7.688261
2512309,Princesa Isabel,2696.0,PB,-37.988647,-7.731747
2512408,Puxinanã,2697.0,PB,-35.954301,-7.154793
2512507,Queimadas,519.0,BA,-39.629347,-10.973561
2512507,Queimadas,2698.0,PB,-35.903136,-7.350288
2512606,Quixabá,2699.0,PB,-37.145833,-7.022398
2512705,Remígio,2700.0,PB,-35.801124,-6.949918
2512721,Pedro Régis,2683.0,PB,-35.296567,-6.633226
2512747,Riachão,1283.0,MA,-46.622528,-7.358189
2512747,Riachão,2701.0,PB,-35.660966,-6.542688
2512754,Riachão do Bacamarte,2702.0,PB,-35.669257,-7.253472
2512762,Riachão do Poço,2703.0,PB,-35.291431,-7.141726
2512788,Riacho de Santo Antônio,2704.0,PB,-36.157018,-7.680234
2512804,Riacho dos Cavalos,2705.0,PB,-37.648339,-6.44067
2512903,Rio Tinto,2706.0,PB,-35.077569,-6.803828
2513000,Salgadinho,2707.0,PB,-36.845776,-7.100984
2513000,Salgadinho,2904.0,PE,-35.650288,-7.926901
2513109,Salgado de São Félix,2708.0,PB,-35.43048,-7.353375
2513158,Santa Cecília,2709.0,PB,-35.876375,-7.738901
2513158,Santa Cecília,4590.0,SC,-50.42517,-26.959182
2513208,Santa Cruz,2710.0,PB,-38.061748,-6.5237
2513208,Santa Cruz,2908.0,PE,-40.343368,-8.241534
2513208,Santa Cruz,3783.0,RN,-36.019297,-6.224752
2513307,Santa Helena,1288.0,MA,-45.289976,-2.244263
2513307,Santa Helena,2711.0,PB,-38.6427,-6.7176
2513307,Santa Helena,3496.0,PR,-54.33601,-24.858494
2513307,Santa Helena,4591.0,SC,-53.621439,-26.936966
2513356,Santa Inês,543.0,BA,-39.813979,-13.2793
2513356,Santa Inês,1289.0,MA,-45.37745,-3.651118
2513356,Santa Inês,2712.0,PB,-38.553995,-7.620999
2513356,Santa Inês,3497.0,PR,-51.902385,-22.637595
2513406,Santa Luzia,545.0,BA,-39.328678,-15.434188
2513406,Santa Luzia,1290.0,MA,-45.690026,-4.068726
2513406,Santa Luzia,2018.0,MG,-43.849658,-19.754824
2513406,Santa Luzia,2713.0,PB,-36.917792,-6.860922
2513505,Santana de Mangueira,2714.0,PB,-38.323633,-7.547048
2513604,Santana dos Garrotes,2715.0,PB,-37.981885,-7.381615
2513653,Santarém,2513.0,PA,-54.699611,-2.438489
2513653,Santarém,2716.0,PB,-38.476393,-6.48362
2513703,Santa Rita,1294.0,MA,-44.321078,-3.142409
2513703,Santa Rita,2717.0,PB,-34.975295,-7.117242
2513802,Santa Teresinha,550.0,BA,-39.520111,-12.76913
2513802,Santa Teresinha,2718.0,PB,-37.443533,-7.079637
2513851,Santo André,2719.0,PB,-36.621339,-7.220157
2513851,Santo André,5268.0,SP,-46.543154,-23.67373
2513901,São Bento,1298.0,MA,-44.828927,-2.697812
2513901,São Bento,2721.0,PB,-37.448835,-6.485286
2513927,São Bentinho,2720.0,PB,-37.724345,-6.885961
2513943,São Domingos do Cariri,2723.0,PB,-36.437398,-7.632733
2513968,São Domingos,555.0,BA,-39.526792,-11.464927
2513968,São Domingos,1094.0,GO,-46.318968,-13.403749
2513968,São Domingos,2722.0,PB,-37.928347,-6.812336
2513968,São Domingos,4603.0,SC,-52.531333,-26.554811
2513968,São Domingos,4722.0,SE,-37.568515,-10.791613
2513984,São Francisco,2056.0,MG,-44.859284,-15.951449
2513984,São Francisco,2724.0,PB,-38.096799,-6.607728
2513984,São Francisco,4723.0,SE,-36.886907,-10.344151
2513984,São Francisco,5281.0,SP,-50.695151,-20.362291
2514008,São João do Cariri,2725.0,PB,-36.534457,-7.381683
2514107,São João do Tigre,2727.0,PB,-36.85472,-8.077026
2514206,São José da Lagoa Tapada,2728.0,PB,-38.162174,-6.936459
2514305,São José de Caiana,2729.0,PB,-38.298928,-7.246359
2514404,São José de Espinharas,2730.0,PB,-37.321433,-6.839736
2514453,São José dos Ramos,2737.0,PB,-35.372536,-7.252384
2514503,São José de Piranhas,2731.0,PB,-38.50198,-7.118704
2514552,São José de Princesa,2732.0,PB,-38.089432,-7.736329
2514602,São José do Bonfim,2733.0,PB,-37.303625,-7.160695
2514651,São José do Brejo do Cruz,2734.0,PB,-37.360063,-6.210543
2514701,São José do Sabugi,2735.0,PB,-36.797204,-6.762945
2514800,São José dos Cordeiros,2736.0,PB,-36.808494,-7.387749
2514909,São Mamede,2738.0,PB,-37.095436,-6.923862
2515005,São Miguel de Taipu,2739.0,PB,-35.20163,-7.247643
2515104,São Sebastião de Lagoa de Roça,2740.0,PB,-35.867807,-7.11034
2515203,São Sebastião do Umbuzeiro,2741.0,PB,-37.013841,-8.152887
2515302,Sapé,2742.0,PB,-35.227975,-7.093591
2515401,Seridó,,,,
2515500,Serra Branca,2744.0,PB,-36.666003,-7.480344
2515609,Serra da Raiz,2745.0,PB,-35.437868,-6.685274
2515708,Serra Grande,2746.0,PB,-38.364696,-7.209574
2515807,Serra Redonda,2747.0,PB,-35.684195,-7.186216
2515906,Serraria,2748.0,PB,-35.628233,-6.815693
2515930,Sertãozinho,2749.0,PB,-35.437159,-6.751273
2515930,Sertãozinho,5310.0,SP,-47.987496,-21.131596
2515971,Sobrado,2750.0,PB,-35.23574,-7.144288
2516003,Solânea,2751.0,PB,-35.663568,-6.751606
2516102,Soledade,2752.0,PB,-36.366791,-7.058292
2516102,Soledade,4305.0,RS,-52.513083,-28.830613
2516151,Sossêgo,2753.0,PB,-36.25382,-6.77067
2516201,Sousa,2754.0,PB,-38.231059,-6.751484
2516300,Sumé,2755.0,PB,-36.883972,-7.66206
2516409,Campo de Santana,2594.0,PB,-35.636707,-6.487585
2516508,Taperoá,588.0,BA,-39.100948,-13.532133
2516508,Taperoá,2756.0,PB,-36.824499,-7.206294
2516607,Tavares,2757.0,PB,-37.871208,-7.626971
2516607,Tavares,4313.0,RS,-51.08804,-31.284266
2516706,Teixeira,2758.0,PB,-37.252477,-7.221036
2516755,Tenório,2759.0,PB,-36.627336,-6.938546
2516805,Triunfo,2760.0,PB,-38.598579,-6.571305
2516805,Triunfo,2942.0,PE,-38.097776,-7.832719
2516805,Triunfo,4330.0,RS,-51.707471,-29.929129
2516904,Uiraúna,2761.0,PB,-38.412754,-6.515044
2517001,Umbuzeiro,2762.0,PB,-35.658233,-7.691993
2517100,Várzea,2763.0,PB,-36.991287,-6.761887
2517100,Várzea,3825.0,RN,-35.373182,-6.346412
2517209,Vieirópolis,2764.0,PB,-38.256666,-6.506845
2517407,Zabelê,2766.0,PB,-37.105676,-8.079012
2600054,Abreu e Lima,2767.0,PE,-34.898389,-7.900719
2600104,Afogados da Ingazeira,2768.0,PE,-37.630991,-7.743121
2600203,Afrânio,2769.0,PE,-41.009544,-8.511358
2600302,Agrestina,2770.0,PE,-35.944725,-8.459657
2600401,Água Preta,2771.0,PE,-35.526311,-8.706095
2600500,Águas Belas,2772.0,PE,-37.122619,-9.111255
2600609,Alagoinha,2548.0,PB,-35.533196,-6.946569
2600609,Alagoinha,2773.0,PE,-36.778767,-8.466504
2600708,Aliança,2774.0,PE,-35.222696,-7.60398
2600807,Altinho,2775.0,PE,-36.064408,-8.48482
2600906,Amaraji,2776.0,PE,-35.450051,-8.376914
2601003,Angelim,2777.0,PE,-36.290174,-8.884289
2601052,Araçoiaba,2778.0,PE,-35.080897,-7.783911
2601102,Araripina,2779.0,PE,-40.494025,-7.570733
2601201,Arcoverde,2780.0,PE,-37.057748,-8.415192
2601300,Barra de Guabiraba,2781.0,PE,-35.658544,-8.420751
2601409,Barreiros,2782.0,PE,-35.183178,-8.816052
2601508,Belém de Maria,2783.0,PE,-35.83347,-8.625038
2601607,Belém de São Francisco,2784.0,PE,-38.962255,-8.75046
2601706,Belo Jardim,2785.0,PE,-36.425822,-8.3313
2601805,Betânia,2786.0,PE,-38.03454,-8.267867
2601904,Bezerros,2787.0,PE,-35.795995,-8.232796
2602001,Bodocó,2788.0,PE,-39.933797,-7.777592
2602100,Bom Conselho,2789.0,PE,-36.685683,-9.169191
2602209,Bom Jardim,1160.0,MA,-45.606004,-3.54129
2602209,Bom Jardim,2790.0,PE,-35.578391,-7.796947
2602209,Bom Jardim,3581.0,RJ,-42.425095,-22.154526
2602308,Bonito,251.0,BA,-41.264698,-11.966768
2602308,Bonito,2212.0,MS,-56.483565,-21.126096
2602308,Bonito,2423.0,PA,-47.306572,-1.367451
2602308,Bonito,2791.0,PE,-35.729249,-8.471628
2602407,Brejão,2792.0,PE,-36.566034,-9.029146
2602506,Brejinho,2793.0,PE,-37.286493,-7.34694
2602506,Brejinho,3683.0,RN,-35.359113,-6.185662
2602605,Brejo da Madre de Deus,2794.0,PE,-36.374142,-8.149333
2602704,Buenos Aires,2795.0,PE,-35.318197,-7.724488
2602803,Buíque,2796.0,PE,-37.160564,-8.619539
2602902,Cabo de Santo Agostinho,2797.0,PE,-35.025293,-8.28218
2603009,Cabrobó,2798.0,PE,-39.309384,-8.505484
2603108,Cachoeirinha,2799.0,PE,-36.240182,-8.486685
2603108,Cachoeirinha,3952.0,RS,-51.101606,-29.947222
2603108,Cachoeirinha,5405.0,TO,-47.923399,-6.115596
2603207,Caetés,2800.0,PE,-36.626828,-8.780301
2603306,Calçado,2801.0,PE,-36.336554,-8.731081
2603405,Calumbi,2802.0,PE,-38.148244,-7.935515
2603454,Camaragibe,2803.0,PE,-34.978152,-8.023505
2603504,Camocim de São Félix,2804.0,PE,-35.765332,-8.358649
2603603,Camutanga,2805.0,PE,-35.26636,-7.405449
2603702,Canhotinho,2806.0,PE,-36.197935,-8.876519
2603801,Capoeiras,2807.0,PE,-36.630566,-8.734225
2603900,Carnaíba,2808.0,PE,-37.794584,-7.793421
2603926,Carnaubeira da Penha,2809.0,PE,-38.751155,-8.317994
2604007,Carpina,2810.0,PE,-35.251397,-7.84566
2604106,Caruaru,2811.0,PE,-35.969863,-8.284547
2604155,Casinhas,2812.0,PE,-35.720635,-7.740839
2604205,Catende,2813.0,PE,-35.702386,-8.675086
2604304,Cedro,664.0,CE,-39.060869,-6.600342
2604304,Cedro,2814.0,PE,-39.236733,-7.71179
2604403,Chã de Alegria,2815.0,PE,-35.204002,-8.006795
2604502,Chã Grande,2816.0,PE,-35.457148,-8.238271
2604601,Condado,2603.0,PB,-37.606036,-6.898312
2604601,Condado,2817.0,PE,-35.09994,-7.587868
2604700,Correntes,2818.0,PE,-36.324435,-9.121174
2604809,Cortês,2819.0,PE,-35.546789,-8.474434
2604908,Cumaru,2820.0,PE,-35.695748,-8.008266
2605004,Cupira,2821.0,PE,-35.951835,-8.624324
2605103,Custódia,2822.0,PE,-37.64428,-8.08546
2605152,Dormentes,2823.0,PE,-40.766168,-8.441163
2605202,Escada,2824.0,PE,-35.224082,-8.356717
2605301,Exu,2825.0,PE,-39.723789,-7.50364
2605400,Feira Nova,2826.0,PE,-35.38013,-7.947042
2605400,Feira Nova,4675.0,SE,-37.314672,-10.261645
2605459,Fernando de Noronha,2827.0,PE,-32.410733,-3.839601
2605509,Ferreiros,2828.0,PE,-35.237252,-7.446664
2605608,Flores,2829.0,PE,-37.971511,-7.85842
2605707,Floresta,2830.0,PE,-38.568675,-8.603066
2605707,Floresta,3288.0,PR,-52.080656,-23.603054
2605806,Frei Miguelinho,2831.0,PE,-35.911283,-7.939179
2605905,Gameleira,2832.0,PE,-35.384573,-8.579803
2606002,Garanhuns,2833.0,PE,-36.496567,-8.882434
2606101,Glória do Goitá,2834.0,PE,-35.29044,-8.005675
2606200,Goiana,2835.0,PE,-34.99591,-7.560603
2606309,Granito,2836.0,PE,-39.615034,-7.707105
2606408,Gravatá,2837.0,PE,-35.567458,-8.211184
2606507,Iati,2838.0,PE,-36.849763,-9.045586
2606606,Ibimirim,2839.0,PE,-37.703214,-8.54026
2606705,Ibirajuba,2840.0,PE,-36.181151,-8.576331
2606804,Igarassu,2841.0,PE,-34.901306,-7.82881
2606903,Iguaraci,2842.0,PE,-37.508199,-7.832221
2607000,Inajá,2843.0,PE,-37.835124,-8.902058
2607000,Inajá,3321.0,PR,-52.199499,-22.750929
2607109,Ingazeira,2844.0,PE,-37.457575,-7.669089
2607208,Ipojuca,2845.0,PE,-35.060864,-8.393034
2607307,Ipubi,2846.0,PE,-40.147571,-7.645048
2607406,Itacuruba,2847.0,PE,-38.697504,-8.822306
2607505,Itaíba,2848.0,PE,-37.417266,-8.945688
2607604,Ilha de Itamaracá,2849.0,PE,-34.830319,-7.747664
2607653,Itambé,390.0,BA,-40.629955,-15.242913
2607653,Itambé,2850.0,PE,-35.096266,-7.414027
2607653,Itambé,3331.0,PR,-51.991236,-23.660056
2607703,Itapetim,2851.0,PE,-37.186266,-7.371777
2607752,Itapissuma,2852.0,PE,-34.897136,-7.767983
2607802,Itaquitinga,2853.0,PE,-35.100231,-7.663729
2607901,Jaboatão dos Guararapes,2854.0,PE,-35.014959,-8.112982
2607950,Jaqueira,2855.0,PE,-35.794232,-8.726183
2608008,Jataúba,2856.0,PE,-36.494292,-7.976684
2608057,Jatobá,1220.0,MA,-44.215325,-5.822821
2608057,Jatobá,2857.0,PE,-38.260651,-9.174761
2608107,João Alfredo,2858.0,PE,-35.578715,-7.865649
2608206,Joaquim Nabuco,2859.0,PE,-35.528814,-8.62281
2608255,Jucati,2860.0,PE,-36.487137,-8.701945
2608305,Jupi,2861.0,PE,-36.412644,-8.709041
2608404,Jurema,2862.0,PE,-36.134739,-8.707135
2608404,Jurema,3061.0,PI,-43.133676,-9.219924
2608453,Lagoa do Carro,2863.0,PE,-35.310783,-7.843834
2608503,Lagoa do Itaenga,2864.0,PE,-35.287387,-7.930053
2608602,Lagoa do Ouro,2865.0,PE,-36.458373,-9.125668
2608701,Lagoa dos Gatos,2866.0,PE,-35.903976,-8.660205
2608750,Lagoa Grande,1772.0,MG,-46.516519,-17.832265
2608750,Lagoa Grande,2867.0,PE,-40.276732,-8.994525
2608800,Lajedo,2868.0,PE,-36.329336,-8.657914
2608909,Limoeiro,2869.0,PE,-35.440154,-7.872599
2609006,Macaparana,2870.0,PE,-35.44246,-7.555638
2609105,Machados,2871.0,PE,-35.511376,-7.688274
2609154,Manari,2872.0,PE,-37.631298,-8.964901
2609204,Maraial,2873.0,PE,-35.82663,-8.790624
2609303,Mirandiba,2874.0,PE,-38.738841,-8.121131
2609402,Moreno,2876.0,PE,-35.08354,-8.108706
2609501,Nazaré da Mata,2877.0,PE,-35.219297,-7.741491
2609600,Olinda,2878.0,PE,-34.854504,-8.010166
2609709,Orobó,2879.0,PE,-35.595568,-7.745535
2609808,Orocó,2880.0,PE,-39.602631,-8.610258
2609907,Ouricuri,2881.0,PE,-40.079983,-7.879184
2610004,Palmares,2882.0,PE,-35.589032,-8.684226
2610103,Palmeirina,2883.0,PE,-36.324202,-9.010896
2610202,Panelas,2884.0,PE,-36.012539,-8.661211
2610301,Paranatama,2885.0,PE,-36.654905,-8.91875
2610400,Parnamirim,2886.0,PE,-39.579547,-8.087292
2610400,Parnamirim,3759.0,RN,-35.271,-5.911156
2610509,Passira,2887.0,PE,-35.581261,-7.997102
2610608,Paudalho,2888.0,PE,-35.171639,-7.90287
2610707,Paulista,2679.0,PB,-37.618548,-6.591381
2610707,Paulista,2889.0,PE,-34.868407,-7.934007
2610806,Pedra,2890.0,PE,-36.939962,-8.496411
2610905,Pesqueira,2891.0,PE,-36.697783,-8.357974
2611002,Petrolândia,2892.0,PE,-38.302664,-9.068627
2611002,Petrolândia,4555.0,SC,-49.693747,-27.53463
2611101,Petrolina,2893.0,PE,-40.502731,-9.388662
2611200,Poção,2894.0,PE,-36.711137,-8.187258
2611309,Pombos,2895.0,PE,-35.396732,-8.139816
2611408,Primavera,2498.0,PA,-47.12527,-0.945439
2611408,Primavera,2896.0,PE,-35.354378,-8.329987
2611507,Quipapá,2897.0,PE,-36.013665,-8.811752
2611533,Quixaba,2898.0,PE,-37.84458,-7.707339
2611606,Recife,2899.0,PE,-34.877065,-8.046658
2611705,Riacho das Almas,2900.0,PE,-35.864796,-8.137417
2611804,Ribeirão,2901.0,PE,-35.369824,-8.509568
2611903,Rio Formoso,2902.0,PE,-35.153212,-8.659196
2612000,Sairé,2903.0,PE,-35.696737,-8.328638
2612109,Salgadinho,2707.0,PB,-36.845776,-7.100984
2612109,Salgadinho,2904.0,PE,-35.650288,-7.926901
2612208,Salgueiro,2905.0,PE,-39.12469,-8.073734
2612307,Saloá,2906.0,PE,-36.691031,-8.972301
2612406,Sanharó,2907.0,PE,-36.569598,-8.360969
2612455,Santa Cruz,2710.0,PB,-38.061748,-6.5237
2612455,Santa Cruz,2908.0,PE,-40.343368,-8.241534
2612455,Santa Cruz,3783.0,RN,-36.019297,-6.224752
2612471,Santa Cruz da Baixa Verde,2909.0,PE,-38.14756,-7.81339
2612505,Santa Cruz do Capibaribe,2910.0,PE,-36.206092,-7.948019
2612554,Santa Filomena,2911.0,PE,-40.607854,-8.166877
2612554,Santa Filomena,3125.0,PI,-45.911607,-9.112278
2612604,Santa Maria da Boa Vista,2912.0,PE,-39.824056,-8.797655
2612703,Santa Maria do Cambucá,2913.0,PE,-35.894138,-7.83676
2612802,Santa Terezinha,2378.0,MT,-50.513986,-10.470375
2612802,Santa Terezinha,2914.0,PE,-37.47875,-7.37696
2612802,Santa Terezinha,4594.0,SC,-50.009017,-26.7813
2612901,São Benedito do Sul,2915.0,PE,-35.945346,-8.816603
2613008,São Bento do Una,2916.0,PE,-36.446469,-8.52637
2613107,São Caitano,2917.0,PE,-36.144077,-8.329239
2613206,São João,2918.0,PE,-36.36532,-8.875762
2613206,São João,3514.0,PR,-52.72524,-25.821375
2613305,São Joaquim do Monte,2919.0,PE,-35.803498,-8.431962
2613404,São José da Coroa Grande,2920.0,PE,-35.151461,-8.889375
2613503,São José do Belmonte,2921.0,PE,-38.757689,-7.857235
2613602,São José do Egito,2922.0,PE,-37.273974,-7.469447
2613701,São Lourenço da Mata,2923.0,PE,-35.012359,-8.00684
2613800,São Vicente Ferrer,1320.0,MA,-44.868074,-2.894871
2613800,São Vicente Ferrer,2924.0,PE,-35.480844,-7.589691
2613909,Serra Talhada,2925.0,PE,-38.289034,-7.981778
2614006,Serrita,2926.0,PE,-39.295062,-7.940406
2614105,Sertânia,2927.0,PE,-37.268393,-8.068467
2614204,Sirinhaém,2928.0,PE,-35.11259,-8.587782
2614303,Moreilândia,2875.0,PE,-39.545999,-7.619314
2614402,Solidão,2929.0,PE,-37.644494,-7.594717
2614501,Surubim,2930.0,PE,-35.748102,-7.847456
2614600,Tabira,2931.0,PE,-37.537735,-7.583661
2614709,Tacaimbó,2932.0,PE,-36.300035,-8.308673
2614808,Tacaratu,2933.0,PE,-38.150401,-9.097976
2614857,Tamandaré,2934.0,PE,-35.103285,-8.756646
2615003,Taquaritinga do Norte,2935.0,PE,-36.042265,-7.894457
2615102,Terezinha,2936.0,PE,-36.627236,-9.056208
2615201,Terra Nova,594.0,BA,-38.623804,-12.388754
2615201,Terra Nova,2937.0,PE,-39.382482,-8.222436
2615300,Timbaúba,2938.0,PE,-35.311884,-7.504835
2615409,Toritama,2939.0,PE,-36.063659,-8.009546
2615508,Tracunhaém,2940.0,PE,-35.231421,-7.802284
2615607,Trindade,1113.0,GO,-49.492667,-16.651708
2615607,Trindade,2941.0,PE,-40.26472,-7.759
2615706,Triunfo,2760.0,PB,-38.598579,-6.571305
2615706,Triunfo,2942.0,PE,-38.097776,-7.832719
2615706,Triunfo,4330.0,RS,-51.707471,-29.929129
2615805,Tupanatinga,2943.0,PE,-37.344532,-8.747984
2615904,Tuparetama,2944.0,PE,-37.31653,-7.6003
2616001,Venturosa,2945.0,PE,-36.874187,-8.578855
2616100,Verdejante,2946.0,PE,-38.970083,-7.922353
2616183,Vertente do Lério,2947.0,PE,-35.849054,-7.770844
2616209,Vertentes,2948.0,PE,-35.968143,-7.901581
2616308,Vicência,2949.0,PE,-35.31395,-7.656549
2616407,Vitória de Santo Antão,2950.0,PE,-35.29762,-8.128191
2616506,Xexéu,2951.0,PE,-35.621222,-8.804601
2700102,Água Branca,24.0,AL,-37.937988,-9.261996
2700102,Água Branca,2544.0,PB,-37.635703,-7.511441
2700102,Água Branca,2954.0,PI,-42.636961,-5.888564
2700201,Anadia,25.0,AL,-36.307783,-9.684886
2700300,Arapiraca,26.0,AL,-36.661471,-9.754866
2700409,Atalaia,27.0,AL,-36.008552,-9.511898
2700409,Atalaia,3199.0,PR,-52.055096,-23.151721
2700508,Barra de Santo Antônio,28.0,AL,-35.510083,-9.402297
2700607,Barra de São Miguel,29.0,AL,-35.905667,-9.83842
2700607,Barra de São Miguel,2567.0,PB,-36.320915,-7.746031
2700706,Batalha,30.0,AL,-37.133014,-9.674195
2700706,Batalha,2973.0,PI,-42.07868,-4.0223
2700805,Belém,31.0,AL,-36.490399,-9.570472
2700805,Belém,2419.0,PA,-48.489756,-1.455396
2700805,Belém,2569.0,PB,-35.51658,-6.742614
2700904,Belo Monte,32.0,AL,-37.277014,-9.822718
2701001,Boca da Mata,33.0,AL,-36.212498,-9.643082
2701100,Branquinha,34.0,AL,-36.016152,-9.23342
2701209,Cacimbinhas,35.0,AL,-36.991082,-9.401212
2701308,Cajueiro,36.0,AL,-36.155937,-9.399402
2701357,Campestre,37.0,AL,-35.56847,-8.847228
2701357,Campestre,1463.0,MG,-46.23808,-21.707874
2701407,Campo Alegre,38.0,AL,-36.352461,-9.784512
2701407,Campo Alegre,4416.0,SC,-49.267588,-26.195027
2701506,Campo Grande,39.0,AL,-36.792608,-9.955423
2701506,Campo Grande,2216.0,MS,-54.629463,-20.448589
2701506,Campo Grande,3676.0,RN,-37.310572,-5.8536
2701605,Canapi,40.0,AL,-37.5967,-9.119319
2701704,Capela,41.0,AL,-36.082583,-9.415041
2701704,Capela,4667.0,SE,-37.062847,-10.506928
2701803,Carneiros,42.0,AL,-37.377303,-9.484762
2701902,Chã Preta,43.0,AL,-36.298334,-9.255605
2702009,Coité do Nóia,44.0,AL,-36.584493,-9.633484
2702108,Colônia Leopoldina,45.0,AL,-35.721414,-8.918058
2702207,Coqueiro Seco,46.0,AL,-35.799377,-9.637147
2702306,Coruripe,47.0,AL,-36.171724,-10.127632
2702355,Craíbas,48.0,AL,-36.769726,-9.617798
2702405,Delmiro Gouveia,49.0,AL,-37.998676,-9.385336
2702504,Dois Riachos,50.0,AL,-37.096502,-9.384645
2702553,Estrela de Alagoas,51.0,AL,-36.764407,-9.390894
2702603,Feira Grande,52.0,AL,-36.681521,-9.898586
2702702,Feliz Deserto,53.0,AL,-36.302788,-10.293491
2702801,Flexeiras,54.0,AL,-35.713933,-9.272807
2702900,Girau do Ponciano,55.0,AL,-36.831592,-9.884041
2703007,Ibateguara,56.0,AL,-35.937325,-8.978232
2703106,Igaci,57.0,AL,-36.637191,-9.537678
2703205,Igreja Nova,58.0,AL,-36.659705,-10.123463
2703304,Inhapi,59.0,AL,-37.750871,-9.225936
2703403,Jacaré dos Homens,60.0,AL,-37.207636,-9.635446
2703502,Jacuípe,61.0,AL,-35.459074,-8.83951
2703601,Japaratinga,62.0,AL,-35.263403,-9.087464
2703700,Jaramataia,63.0,AL,-37.004558,-9.662243
2703759,Jequiá da Praia,,,,
2703809,Joaquim Gomes,65.0,AL,-35.747381,-9.132805
2703908,Jundiá,66.0,AL,-35.566925,-8.932968
2703908,Jundiá,5624.0,RN,-35.349469,-6.268657
2704005,Junqueiro,67.0,AL,-36.480346,-9.906961
2704104,Lagoa da Canoa,68.0,AL,-36.741257,-9.832909
2704203,Limoeiro de Anadia,69.0,AL,-36.512097,-9.740983
2704302,Maceió,70.0,AL,-35.73496,-9.665985
2704401,Major Isidoro,71.0,AL,-36.992006,-9.530086
2704500,Maragogi,72.0,AL,-35.226692,-9.007443
2704609,Maravilha,73.0,AL,-37.352419,-9.230449
2704609,Maravilha,4519.0,SC,-53.173699,-26.766529
2704708,Marechal Deodoro,74.0,AL,-35.896731,-9.709715
